feature_id,site_no,site_name,da_sqkm,lat_reachCent,lon_reachCent
87382,22908295,"BOTTLE CREEK AT ROOKERY BRANCH NEAR HOMESTEAD, FL",0,25.4679775,-80.8545303
16770082,2.55654E+14,"BLACKWATER RIVER NEAR GOODLAND, FL",0,25.9481945,-81.5838852
16837810,2299450,BIG SLOUGH AT TROPICAIRE BLVD NEAR NORTH PORT FL,81,27.1211643,-82.1934204
16838064,2299472,BIG SLOUGH AT WEST PRICE BLVD NEAR NORTH PORT FL,85.6999969,27.069334,-82.2203369
16814857,2298202,SHELL CREEK NEAR PUNTA GORDA FL,373,26.9847813,-81.9356384
16807563,2297105,PEACE RIVER AT NOCATEE FL,1670,27.1625004,-81.901947
16768068,2291500,"IMPERIAL RIVER NEAR BONITA SPRINGS, FL",0,26.33564,-81.749527
16760406,2291580,"NORTH BRANCH ESTERO RIVER AT ESTERO, FL",0,26.4420242,-81.795639
16808187,2298123,PRAIRIE CREEK NEAR FORT OGDEN FL,233,27.052,-81.784523
16807555,2297100,JOSHUA CREEK AT NOCATEE FL,132,27.1667175,-81.8795319
16808391,2298110,PRAIRIE CREEK UPSTREAM OF SR 31 NEAR FT OGDEN FL,0,27.0415554,-81.7431641
16813909,2297600,SHELL CREEK AT CIRCLE K GROVES NEAR FT OGDEN FL,0,26.9673443,-81.8266373
16731760,2256500,"FISHEATING CREEK AT PALMDALE, FL",311,26.9325581,-81.3147964
10247863,2292010,CALOOSAHATCHEE CANAL DWS OF S-77 AT MOORE HAVEN FL,,26.8333321,-81.0888901
66922,2277600,"LOXAHATCHEE RIVER NEAR JUPITER,FL",0,26.9392242,-80.1750412
11002255,2232000,"ST. JOHNS RIVER NEAR MELBOURNE, FL",968,28.0847397,-80.7519989
11002981,2231600,"JANE GREEN CREEK NEAR DEER PARK, FL",248,28.0744629,-80.8881149
11012797,2231396,"BLUE CYPRESS CREEK NEAR FELLSMERE, FL",105,27.7280846,-80.8050613
11014543,2231342,"FT DRUM CREEK AT SUNSHINE ST PKY NEAR FT DRUM, FL",52.5999985,27.5686474,-80.7961731
11002833,2232155,"PENNYWASH CREEK NEAR DEER PARK, FL",17.2000008,28.1819572,-80.89534
11002807,2232200,"WOLF CREEK NEAR DEER PARK, FL",25.7000008,28.213068,-80.9108963
16698617,2249500,"CRANE CREEK AT MELBOURNE, FL",12.6000004,28.0794601,-80.6295013
16698495,2249007,EAU GALLIE RIV AT HEATHER GLEN CIR AT MELBOURNE FL,3.8,28.1269588,-80.6467209
20112884,2251000,"SOUTH PRONG ST SEBASTIAN RIVER NEAR SEBASTIAN,FL",35,27.7694721,-80.5058899
20112458,2251500,"NORTH PRONG SAINT SEBASTIAN RIVER NEAR MICCO, FL",28.5,27.8561363,-80.5242233
16712778,2275197,"MOSQUITO CREEK NEAR OKEECHOBEE, FL",9.3999996,27.2372684,-80.7806168
16711976,2274010,"TAYLOR CREEK NEAR OKEECHOBEE, FL",45.4000015,27.3653202,-80.8725586
16711844,2274005,"OTTER CREEK NEAR OKEECHOBEE, FL",8.5600004,27.3775425,-80.8453369
16712728,2273630,"POPASH SLOUGH NEAR OKEECHOBEE, FL",23.1000004,27.2439346,-80.8964539
16715354,2274490,"WILLIAMSON DITCH NEAR OKEECHOBEE, FL",31.3999996,27.3047657,-80.8189468
30580,2.72524E+14,"FIVE MILE CANAL ABOVE S-29-1-4 NR FT. PIERCE, FL",0,27.4236507,-80.3714371
21486588,2272650,"FISH SLOUGH NEAR BASINGER, FL",38.2999992,27.4653168,-80.9220047
21491584,2270500,"ARBUCKLE CREEK NEAR DE SOTO CITY, FL",379,27.4425373,-81.2972946
21484344,2270000,CARTER CREEK NEAR SEBRING FL,38.7999992,27.5322571,-81.3875732
21491646,2271500,JOSEPHINE CREEK NEAR DE SOTO CITY FL,109,27.3742085,-81.3934097
16726628,2255600,"FISHEATING CREEK NEAR LAKE PLACID,FL",60,27.2092152,-81.4614639
16807219,2296750,PEACE RIVER AT ARCADIA FL,1367,27.2208824,-81.8761978
16806475,2296500,CHARLIE CREEK NEAR GARDNER FL,330,27.3750439,-81.7964706
16806253,2296260,CHARLIE CREEK NEAR CREWSVILLE FL,192,27.4594841,-81.6784134
16803063,2295637,PEACE RIVER AT ZOLFO SPRINGS FL,826,27.5044823,-81.8009186
16802959,2294898,PEACE RIVER AT FORT MEADE FL,480,27.7514191,-81.7820282
16802969,2295163,WHIDDEN CREEK NEAR FORT MEADE FL,43,27.7072544,-81.807579
16802007,2295420,PAYNE CREEK NEAR BOWLING GREEN FL,121,27.6205902,-81.8256378
16807511,2297310,HORSE CREEK NEAR ARCADIA FL,218,27.1994953,-81.9884186
16794835,2294217,SADDLE CREEK AT ST.HWY 542 NEAR LAKELAND FL,53,28.0441875,-81.8761902
16802865,2294161,PEACE CREEK NEAR BARTOW FL,204.8000031,27.9244442,-81.7955551
16801441,2293987,PEACE CREEK DRAINAGE CANAL NEAR WAHNETA FL,162,27.9247475,-81.7267456
16802915,2294650,PEACE RIVER AT BARTOW FL,390,27.9022484,-81.8173065
16812461,2297155,HORSE CREEK NEAR MYAKKA HEAD FL,42,27.4872608,-82.0234222
16802829,2294405,"BANANA-HANCOCK CANAL NR HIGHLAND CITY, FL",18.7999992,27.9828014,-81.8934174
933100032,2294330,LAKE LENA RUN NEAR AUBURNDALE FL,21.3999996,28.0000229,-81.812027
16896704,2301150,SOUTH PRONG ALAFIA RIVER NEAR FT LONESOME FL,72.5999985,27.7293053,-82.0742798
16896626,2301000,NORTH PRONG ALAFIA RIVER AT KEYSVILLE FL,135,27.8839149,-82.10009
16896600,2300882,NORTH PRONG ALAFIA RIVER NEAR NICHOLS FL,39,27.8903046,-82.0117493
16906265,2301900,"FOX BRANCH NEAR SOCRUM, FL",9.5,28.1819439,-82.0124969
16837536,2299410,BIG SLOUGH CANAL NEAR MYAKKA CITY FL,36.5,27.1933842,-82.1442566
16838908,2298830,MYAKKA RIVER NEAR SARASOTA FL,229,27.2406044,-82.3137054
16838830,2298554,MYAKKA RIVER NEAR MYAKKA CITY FL,0,27.3661556,-82.1492538
16838806,2298527,OGLEBY CK DNSTR FROM BOGGY CK NEAR MYAKKA CITY FL,8.71,27.4036541,-82.1817551
16838820,2298495,MAPLE CREEK NEAR MYAKKA CITY FL,3.9300001,27.3844872,-82.1298141
16837004,2298488,MYAKKA RIVER UPST FROM YOUNGS CK NR MYAKKA CITY FL,29.2000008,27.4292088,-82.1387024
16838802,2298530,COKER CREEK NEAR MYAKKA CITY FL,6.5900002,27.4097652,-82.175087
16837084,2298608,MYAKKA RIVER AT MYAKKA CITY FL,125,27.3436565,-82.1567535
16837572,2298880,MYAKKA RIVER AT CONTROL NEAR LAUREL FL,253,27.1856079,-82.3556519
16838808,2298492,LONG CREEK NEAR MYAKKA CITY FL,6.0500002,27.4094868,-82.1264801
16837332,2298760,HOWARD CREEK NEAR SARASOTA FL,20,27.2883816,-82.3400955
16865323,2299710,COW PEN SLOUGH AT CONTROL NEAR BEE RIDGE FL,39.0999985,27.2347221,-82.3961182
16877194,2299950,MANATEE RIVER NEAR MYAKKA HEAD FL,65.3000031,27.4736519,-82.2112045
16875122,2300018,GAMBLE CREEK NEAR PARRISH FL,50.5999985,27.5533714,-82.3895416
16883900,2300500,LITTLE MANATEE RIVER NEAR WIMAUMA FL,149,27.6711426,-82.3525925
16883564,2300300,SOUTH FORK LITTLE MANATEE RIVER NEAR WIMAUMA FL,38.4000015,27.649477,-82.2942581
16883892,2300100,LITTLE MANATEE RIVER NEAR FT. LONESOME FL,31.3999996,27.7047539,-82.1978683
16883956,2300210,SOUTH FORK LITTLE MANATEE RIVER NEAR PARRISH FL,21.3999996,27.6019802,-82.2112045
16896602,2301500,ALAFIA RIVER AT LITHIA FL,335,27.8722477,-82.2112045
16896286,2301300,SOUTH PRONG ALAFIA RIVER NEAR LITHIA FL,107,27.7966957,-82.1175842
16907019,2303330,HILLSBOROUGH R AT MORRIS BR NEAR THONOTOSASSA FL,375,28.0986118,-82.3113861
16907135,2303000,HILLSBOROUGH RIVER NEAR ZEPHYRHILLS FL,220,28.1502895,-82.2317505
16906323,2302500,BLACKWATER CREEK NEAR KNIGHTS FL,110,28.1397228,-82.1500015
16906283,2301990,HILLSBOROUGH R AB CRYSTAL SPR NEAR ZEPHYRHILLS FL,82,28.1855564,-82.184166
166743839,2303420,CYPRESS CREEK AT WORTHINGTON GARDENS FL,117,28.1872215,-82.4022217
16907055,2303205,BAKER CREEK AT MCINTOSH ROAD NEAR ANTIOCH FL,27.3999996,28.0283527,-82.245369
16918210,2300700,BULLFROG CREEK NEAR WIMAUMA FL,29.1000004,27.7919712,-82.3520355
16918022,2301793,EAST LAKE OUTFALL AT E. CHELSEA ST. NEAR TAMPA FL,1.46,27.9850216,-82.3717575
16918140,2301745,DELANEY CREEK POPOFF CANAL NEAR TAMPA FL,2,27.9022465,-82.377037
16918144,2301738,ARCHIE CREEK AT 78TH STREET NEAR TAMPA FL,2.9000001,27.880024,-82.3706512
16918094,2301750,DELANEY CREEK NEAR TAMPA FL,16.1000004,27.9258556,-82.3642578
16863757,2299861,WALKER CREEK NEAR SARASOTA FL,4.9099998,27.3678226,-82.5442657
16877722,2300033,BRADEN RIV AT LAKEWOOD RANCH NR LORRAINE FL,25.6100006,27.4205551,-82.4261093
16875058,2300017,GAMBLE CREEK AT COUNTY ROAD 675 NEAR PARRISH FL,14,27.5757771,-82.3973923
16877502,2300042,WARD LAKE NEAR BRADENTON FL,59.5,27.441431,-82.4875946
16906491,2305851,CURIOSITY CREEK AT 122ND AVE NEAR SULPHUR SPGS. FL,2.5899999,28.0586281,-82.4612045
16907115,2304500,HILLSBOROUGH RIVER NEAR TAMPA FL,624,28.0239086,-82.427597
16907067,2303800,CYPRESS CREEK NEAR SULPHUR SPRINGS FL,160,28.0888882,-82.4091644
16916386,2306647,SWEETWATER CREEK NEAR TAMPA FL,14.3000002,28.0139084,-82.5450974
16916782,2306500,SWEETWATER CREEK NEAR SULPHUR SPRINGS FL,7.4299998,28.0430737,-82.5117645
16916302,2306950,BRUSHY CREEK NEAR CITRUS PARK FL,0,28.0650177,-82.5553741
16916300,2306774,ROCKY CREEK AT ST HWY 587 AT CITRUS PARK FL,17.7999992,28.065834,-82.565834
16917952,2306654,HENRY STREET CANAL NEAR TAMPA FL,0,28.0004864,-82.5563126
16918338,2300075,FROG CREEK AT BUFFALO ROAD NEAR RUBONIA FL,12.5,27.579916,-82.5133896
16916356,2307000,ROCKY CREEK NEAR SULPHUR SPRINGS FL,35,28.0369625,-82.5759277
16918012,2307668,ALLIGATOR CREEK BELOW BELCHER RD AT CLEARWATER FL,3.6700001,27.9797421,-82.7423248
16918090,2307780,LONG BRANCH NEAR PINELLAS PARK FL,1.25,27.9158554,-82.724823
16918578,2307674,ALLIGATOR CREEK AT KAPOK PARK AT CLEARWATER FL,7.0100002,27.9755058,-82.7131577
16916762,2307323,BROOKER CREEK NEAR LAKE FERN FL,17,28.1408482,-82.6398239
16932670,2309415,CURLEW CREEK AT EVANS ROAD NEAR DUNEDIN FL,0.57,28.0233517,-82.740654
16934554,2308935,SAINT JOE CREEK AT PINELLAS PARK FL,2.55,27.8141918,-82.6956558
16932636,2309425,CURLEW CREEK AT COUNTY ROAD 1 NEAR OZONA FL,4.0900002,28.0469627,-82.7587128
16933128,2309421,CURLEW CREEK AT BELCHER ROAD NEAR OZONA FL,3.4000001,28.0400009,-82.7474976
16934506,2308870,PINEBROOK CN AT BRYAN DAIRY RD AT PINELLAS PARK FL,2.51,27.8722458,-82.7370453
16933094,2310000,ANCLOTE RIVER NEAR ELFERS FL,72.5,28.2141781,-82.6664886
3171902,8211500,"Nueces Rv at Calallen, TX",16684,27.8830776,-97.6252747
3171770,8211200,"Nueces Rv at Bluntzer, TX",16611,27.9377956,-97.7758331
3170312,8211000,"Nueces Rv nr Mathis, TX",16503,28.0383472,-97.8602753
3168874,8210400,"Lagarto Ck nr George West, TX",155,28.0597363,-98.0969467
1636035,8211520,"Oso Ck at Corpus Christi, TX",90.3000031,27.7114182,-97.5019379
1653465,8211900,"San Fernando Ck at Alice, TX",507,27.7725258,-98.0336151
1585173,8212400,"Los Olmos Ck nr Falfurrias, TX",480,27.2644863,-98.1358414
10634531,8194200,"San Casimiro Ck nr Freer, TX",469,27.9650135,-98.9669647
291639,8374550,"Rio Grande nr Castolon, TX",0,29.1379795,-103.5249023
291801,8375300,"Rio Grande at Rio Grande Village, Big Bnd NP, TX",0,29.1835384,-102.975441
10893541,8193000,"Nueces Rv nr Asherton, TX",4082,28.5002632,-99.6819916
10892689,8192000,"Nueces Rv bl Uvalde, TX",1861,29.1238537,-99.894783
10646917,8197500,"Frio Rv bl Dry Frio Rv nr Uvalde, TX",631,29.2457943,-99.6744995
10646939,8204005,"Leona Rv nr Uvalde, TX",132,29.1544075,-99.7433853
10630401,8194000,"Nueces Rv at Cotulla, TX",5171,28.4263783,-99.240036
10661028,8205500,"Frio Rv nr Derby, TX",3429,28.7366447,-99.1447525
10840572,8181800,"San Antonio Rv nr Elmendorf, TX",1743,29.2221851,-98.3558426
10836420,8181500,"Medina Rv at San Antonio, TX",1317,29.2641277,-98.4908524
10631613,8194500,"Nueces Rv nr Tilden, TX",8093,28.3088894,-98.5572357
10664196,8206600,"Frio Rv at Tilden, TX",4493,28.4674931,-98.5475159
10664160,8206910,"Choke Canyon Res OWC nr Three Rivers, TX",5490,28.4861031,-98.2416763
10671061,8206700,"San Miguel Ck nr Tilden, TX",783,28.5874882,-98.5458527
10828654,8208000,"Atascosa Rv at Whitsett, TX",1171,28.6222095,-98.2814026
10827864,8207500,"Atascosa Rv nr McCoy, TX",530,28.8649769,-98.3383484
3838221,8183500,"San Antonio Rv nr Falls City, TX",2113,28.9516411,-98.0641708
3836053,8183200,"San Antonio Rv nr Floresville, TX",1964,29.1100006,-98.1744461
7852265,8186000,"Cibolo Ck nr Falls City, TX",827,29.0141392,-97.9302826
7851771,8185500,"Cibolo Ck at Sutherland Springs, TX",665,29.2797222,-98.0533371
3168766,8210000,"Nueces Rv nr Three Rivers, TX",15427,28.427496,-98.1780624
1623207,8175000,"Sandies Ck nr Westhoff, TX",549,29.2152481,-97.4494324
3840125,8188500,"San Antonio Rv at Goliad, TX",3921,28.6492863,-97.3848572
3838999,8186500,"Ecleto Ck nr Runge, TX",239,28.9202538,-97.7722244
5289427,8189300,"Medio Ck nr Beeville, TX",204,28.4830513,-97.656662
5297631,8189700,"Aransas Rv nr Skidmore, TX",247,28.282505,-97.6208267
1640519,8177520,"Guadalupe Rv nr Bloomington, TX",5816,28.6619453,-96.9652786
1639225,8176500,"Guadalupe Rv at Victoria, TX",5198,28.793045,-97.0130463
1637447,8175800,"Guadalupe Rv at Cuero, TX",4934,29.0905323,-97.3297119
1638907,8177500,"Coleto Ck nr Victoria, TX",500,28.7311039,-97.1386032
1638559,8176900,"Coleto Ck at Arnold Rd Crsg nr Schroeder, TX",357,28.8616524,-97.2263794
1638505,8176550,"Fifteenmile Ck nr Weser, TX",167,28.8977604,-97.3549957
1639209,8177300,"Perdido Ck at FM 622 nr Fannin, TX",28,28.7516556,-97.317215
3840137,8188570,"San Antonio Rv nr McFaddin, TX",4134,28.53125,-97.0426941
1640227,8188800,"Guadalupe Rv nr Tivoli, TX",10128,28.5058346,-96.8847046
3159657,8189200,"Copano Ck nr Refugio, TX",87.8000031,28.3036175,-97.1124878
5289461,8189500,"Mission Rv at Refugio, TX",690,28.2919502,-97.2791595
7842827,8164000,"Lavaca Rv nr Edna, TX",817,28.9599838,-96.6863632
7846399,8164504,"E Mustang Ck nr Louise, TX",53.9000015,29.0708122,-96.4171906
7846391,8164503,"W Mustang Ck nr Ganado, TX",178,29.0718575,-96.4680252
7846335,8164450,"Sandy Ck nr Ganado, TX",289,29.1602535,-96.5463638
7846429,8164390,"Navidad Rv at Strane Pk nr Edna, TX",579,29.0655365,-96.6741409
9349285,8164600,"Garcitas Ck nr Inez, TX",91.6999969,28.8913765,-96.8191452
9349455,8164800,"Placedo Ck nr Placedo, TX",68.3000031,28.7252712,-96.7688675
3765768,8162500,"Colorado Rv nr Bay City, TX",42240,28.9741459,-96.0124588
9355362,8162600,"Tres Palacios Rv nr Midfield, TX",145,28.9280376,-96.1710739
166743837,2303400,CYPRESS CREEK NEAR SAN ANTONIO FL,56,28.3238888,-82.3836136
16928178,2310675,HIDDEN RIVER NEAR HOMOSASSA FL,0,28.7666512,-82.588707
16928188,2310525,WEEKI WACHEE RIVER NEAR BROOKSVILLE FL,0,28.5188847,-82.5823212
16944416,2313250,WITHLACOOCHEE R BYPASS CHANNEL NR INGLIS FLA,0,29.0210857,-82.6378784
16944526,2313100,"RAINBOW RIVER AT DUNNELLON, FL",0,29.0494213,-82.4476013
16949694,2313000,"WITHLACOOCHEE RIVER NEAR HOLDER, FL",1825,28.9888668,-82.3495407
16944498,2313230,"WITHLACOOCHEE R AT INGLIS DAM NEAR DUNNELLON, FL",2020,29.0099754,-82.6167679
16629114,2240000,"OCKLAWAHA RIVER NEAR CONNER, FL",1196,29.2146988,-81.9859238
16629118,2239000,"OCKLAWAHA RIVER NR OCALA,FLA.",1018,29.1833115,-81.9923096
16644086,2236500,"BIG CREEK NEAR CLERMONT, FL",68,28.4477825,-81.7400742
16628636,2238500,"OCKLAWAHA RIVER AT MOSS BLUFF, FL",879,29.0811119,-81.8808365
16630398,2239501,"SILVER RIVER NEAR OCALA, FL",0,29.2149773,-82.0411987
16636378,2237293,"PALATLAKAHA R AT STRUCTURE M-1, NR OKAHUMPKA, FL",221,28.7444363,-81.8725815
933080181,2236605,"LITTLE CREEK AT GREEN SWAMP ROAD NEAR CLERMONT, FL",14.8000002,28.448616,-81.7814636
21476262,2266025,"REEDY CREEK AT S-46 NEAR VINELAND, FL",25.3999996,28.4052849,-81.6114655
21477644,2266200,"WHITTENHORSE CREEK NEAR VINELAND, FL",12.3999996,28.3850079,-81.6164627
16949624,2312764,"GUM SPRINGS NEAR HOLDER, FL",0,28.9511108,-82.25
16949870,2312600,"WITHLACOOCHEE RIVER NEAR FLORAL CITY, FL",995,28.7435989,-82.2200928
16949944,2312558,"WITHLACOOCHEE RIVER AT NOBLETON, FL",816,28.6444359,-82.2570343
16949534,2312300,WITHLACOOCHEE RIVER AT RITAL FL,629,28.5211067,-82.2092514
933100042,2312000,"WITHLACOOCHEE RIVER AT TRILBY, FL",570,28.4799976,-82.1775818
16955656,2311500,"WITHLACOOCHEE RIVER NEAR DADE CITY, FL",390,28.3525047,-82.1259155
16955670,2310947,"WITHLACOOCHEE RIVER NEAR CUMPRESSCO, FL",280,28.3119507,-82.0559158
16949670,2312200,"LITTLE WITHLACOOCHEE RIVER AT RERDELL, FL",145,28.572773,-82.155365
16949536,2312180,"LITTLE WITHLACOOCHEE RIVER NEAR TARRYTOWN, FL",85,28.5216656,-82.0548019
16949820,2312700,"OUTLET RIVER AT PANACOOCHEE RETREATS, FL",420,28.8002644,-82.1528625
16949630,2312667,"SHADY BROOK NEAR SUMTERVILLE, FL",8,28.7702675,-82.0636978
16949386,2312645,"JUMPER CREEK CANAL NEAR WAHOO, FL",50.5999985,28.7044353,-82.1570282
16949648,2312640,"JUMPER CREEK CANAL NEAR BUSHNELL, FL",40,28.6972141,-82.1039734
16949330,2312675,"LITTLE JONES CREEK NEAR RUTLAND, FL.",0,28.8425007,-82.1302795
16949786,2312762,"WITHLACOOCHEE RIVER NEAR INVERNESS, FL",1700,28.9122047,-82.2800903
16949882,2312598,"WITHLACOOCHEE RIVER NR PINEOLA, FL",930,28.7241554,-82.2423096
16949806,2312720,"WITHLACOOCHEE RIVER AT WYSONG DAM, AT CARLSON, FL",1520,28.8233204,-82.1831436
16949962,2312500,"WITHLACOOCHEE RIVER AT CROOM, FL",810,28.5927715,-82.2220306
10997161,2235200,"BLACKWATER CREEK NEAR CASSIA, FL",126,28.874445,-81.4897232
10997271,2234990,"LITTLE WEKIVA RIVER NEAR ALTAMONTE SPRINGS, FL",42.4000015,28.6880531,-81.3967361
10996421,2233500,"ECONLOCKHATCHEE RIVER NEAR CHULUOTA, FL",241,28.6777782,-81.1141663
10996491,2233484,"ECONLOCKHATCHEE RIVER NEAR OVIEDO, FL",228,28.6555519,-81.1697845
10996629,2233475,"LT ECONLOCKHATCHEE R AT STATE HWY434 NR OVIEDO, FL",72.6999969,28.6199989,-81.20784
10997359,2233200,"LITTLE ECONLOCKHATCHEE RIVER NEAR UNION PARK, FL",27.1000004,28.5250015,-81.2439575
10996529,2234308,"HOWELL CREEK NEAR ALTAMONTE SPRINGS, FL",20.6000004,28.6324978,-81.3231201
10995987,2235500,"BLUE SPRINGS NEAR ORANGE CITY, FL",0,28.9441547,-81.3397903
10997281,2234344,"HOWELL CREEK AT STATE HWY 434 NEAR OVIEDO, FL",52,28.6899967,-81.2475662
10997289,2234324,"HOWELL CREEK NEAR SLAVIA, FL",29.2000008,28.6477757,-81.2645111
10997263,2234400,"GEE CREEK NEAR LONGWOOD, FL",12.8000002,28.7041626,-81.2906189
10997569,2235000,"WEKIVA RIVER NEAR SANFORD, FL",189,28.8152695,-81.4192352
10996335,2234384,"SOLDIER CREEK NEAR LONGWOOD, FL",21.2000008,28.7188854,-81.3086777
16687209,2247510,"TOMOKA RIVER NEAR HOLLY HILL, FL",76.8000031,29.2174816,-81.1086655
21477628,2266291,"LATERAL 405 AT S-405A, NEAR DOCTOR PHILLIPS, FL",19.6000004,28.4269447,-81.605278
21476600,2264495,"SHINGLE CREEK AT CAMPBELL, FL",180,28.2672348,-81.4478531
21478176,2266300,"REEDY CREEK NEAR VINELAND, FL",84.5999985,28.3327866,-81.5797958
21476576,2266480,"DAVENPORT CREEK NEAR LOUGHMAN, FL",23,28.2711239,-81.5909042
21477658,2264051,"BLACK LK OUTLET AT S-101A, AT LAKE BUENA VISTA, FL",0.69,28.374445,-81.5149994
21476322,2264003,"CYPRESS CREEK CANAL AT S-103A NEAR VINELAND, FL",29.5,28.389452,-81.5250702
21476270,2263869,"SOUTH LAKE OUTLET AT S-15, NEAR VINELAND, FL",2.5599999,28.4127846,-81.5378494
21476368,2262900,"BOGGY CREEK NEAR TAFT, FL",83.5999985,28.371397,-81.3106232
21477692,2264100,"BONNET CREEK NEAR VINELAND, FL",44.7000008,28.3252888,-81.5206299
21477690,2263800,"SHINGLE CREEK AT AIRPORT NEAR KISSIMMEE, FL",89.1999969,28.3041782,-81.4509048
21478164,2266496,"REEDY CREEK BELOW S-40, NEAR LOUGHMAN, FL",174,28.2758446,-81.5436859
933090063,2266500,"REEDY CREEK NEAR LOUGHMAN, FL",177,28.2636242,-81.5364609
10991435,2232500,"ST. JOHNS RIVER NEAR CHRISTMAS, FL",1539,28.5430546,-80.9433899
10997905,2234000,"ST. JOHNS RIVER ABOVE LAKE HARNEY NEAR GENEVA, FL",2043,28.7141609,-81.0353394
11003333,2232400,"ST. JOHNS RIVER NEAR COCOA, FL",1331,28.3697281,-80.8725586
16686741,2248000,"SPRUCE CREEK NEAR SAMSULA, FL",33.4000015,29.0508194,-81.0464478
16629290,2240500,"OCKLAWAHA RIVER AT EUREKA, FL",1367,29.371666,-81.901947
16624840,2243960,"OCKLAWAHA R AT RODMAN DAM NEAR ORANGE SPRINGS, FL",2747,29.5083332,-81.8041687
16662855,2245500,"SOUTH FORK BLACK CREEK NEAR PENNEY FARMS, FL",134,29.9794083,-81.8520432
16624508,2243000,"ORANGE CREEK AT ORANGE SPRINGS, FL",1119,29.5096931,-81.9461975
166743978,2315500,"SUWANNEE RIVER AT WHITE SPRINGS, FLA.",2430,30.3257809,-82.7381821
2232693,2320500,"SUWANNEE RIVER AT BRANFORD, FLA.",7880,29.9557858,-82.9276276
2229745,2320250,TROY SPRING NEAR BRANFORD FLA,0,30.0060596,-82.9973526
933110050,2323566,MANATEE SPRING NR CHIEFLAND FLA,0,29.4896812,-82.9767914
2232703,2323000,"SUWANNEE RIVER NEAR BELL, FLORIDA",9390,29.7913437,-82.9242935
2161876,2322800,SANTA FE RIVER NR HILDRETH FLA,1374,29.9116211,-82.860405
2161874,2321500,"SANTA FE RIVER AT WORTHINGTON SPRINGS, FLA.",575,29.9219074,-82.4262238
2161828,2320700,"SANTA FE RIVER NEAR GRAHAM, FLA.",94.9000015,29.8463535,-82.2195511
2161384,2321000,NEW RIVER NR LAKE BUTLER FLA,191,29.9982948,-82.2740021
2161766,2322700,"ICHETUCKNEE R AT HWY27 NR HILDRETH, FL",551.6699829,29.9524994,-82.7861099
2161822,2322500,"SANTA FE RIVER NEAR FORT WHITE, FLA.",1017,29.8488483,-82.7151184
1984358,2324000,"STEINHATCHEE RIVER NEAR CROSS CITY, FLA.",350,29.7866135,-83.3215256
2230497,2320000,"SUWANNEE RIVER AT LURAVILLE, FLA.",7280,30.0999451,-83.171524
2230489,2319800,"SUWANNEE RIVER AT DOWLING PARK, FLORIDA",7190,30.2449417,-83.249588
2235931,2323592,SUWANNEE RIVER AB GOPHER RIVER NR SUWANNEE FL,9973,29.3394051,-83.0865173
1978402,2325000,"FENHOLLOWAY RIVER NEAR PERRY, FLA",160,30.0713234,-83.6623688
1978648,2324400,"FENHOLLOWAY RIVER NEAR FOLEY, FLA.",60,30.0982704,-83.4718094
1978638,2326000,"ECONFINA RIVER NEAR PERRY, FLA.",198,30.1707649,-83.8237686
2287383,2326526,WACISSA RIVER NR WACISSA FLA,0,30.3013153,-83.9796066
10319918,2327033,LOST CREEK AT ARRAN FLA,70.4000015,30.1882572,-84.4082336
10323850,2326900,"ST. MARKS RIVER NEAR NEWPORT, FLA.",535,30.271431,-84.1482544
10365698,2327100,"SOPCHOPPY RIVER NR SOPCHOPPY, FLA.",102,30.1293678,-84.4943466
10365922,2330150,"OCHLOCKONEE RIVER NR SMITH CREEK, FLA.",2080,30.17659,-84.6679611
2298964,2359170,"APALACHICOLA RIVER NR SUMATRA,FLA.",19200,29.9493713,-85.0154724
2077651,2330400,"NEW RIVER NEAR SUMATRA, FLA",157,30.0388126,-84.8437958
22370531,7381235,"GIWW West of Bayou Lafourche at Larose, LA",0,29.5772228,-90.3808365
22366581,7381000,"Bayou Lafourche at Thibodaux, LA",0,29.7979851,-90.8225937
22356915,7380400,"Bayou Lafourche at Donaldsonville, LA",,30.1008892,-90.9934692
22357431,7380401,"Bayou Lafourche SW of Donaldsonville, LA",,30.0963898,-91.0058365
15182085,7381590,"Wax Lake Outlet at Calumet, LA",0,29.6979866,-91.3728867
8331928,8031000,"Cow Bayou nr Mauriceville, TX",83.3000031,30.1863213,-93.9085083
8331804,8030500,"Sabine Rv nr Ruliff, TX",9329,30.3038177,-93.743782
1143252,8041700,"Pine Island Bayou nr Sour Lake, TX",336,30.1060467,-94.3346329
1520091,8071280,"Luce Bayou abv Lk Houston nr Huffman, TX",218,30.1096611,-95.0599289
1520237,8071000,"Peach Ck at Splendora, TX",117,30.2327137,-95.1682663
1520083,8070200,"E Fk San Jacinto Rv nr New Caney, TX",388,30.1454926,-95.1243744
1440389,8075730,"Vince Bayou at Pasadena, TX",8.2600002,29.6946735,-95.2163239
1558800,8067525,"Goose Ck at Baytown, TX",15.8000002,29.7707825,-94.999649
1558738,8067500,"Cedar Bayou nr Crosby, TX",64.9000015,29.9727192,-94.9857635
1563092,8077600,"Clear Ck nr Friendswood, TX",122,29.5174561,-95.1785431
1468280,8068000,"W Fk San Jacinto Rv nr Conroe, TX",828,30.2446575,-95.4571609
1468106,8068090,"W Fk San Jacinto Rv abv Lk Houston nr Porter, TX",962,30.0860519,-95.2999344
1508043,8068500,"Spring Ck nr Spring, TX",409,30.1104946,-95.4363251
1508047,8068275,"Spring Ck nr Tomball, TX",186,30.1199398,-95.6460571
1508279,8068325,"Willow Ck nr Tomball, TX",41,30.1054955,-95.546608
1508289,8069000,"Cypress Ck nr Westfield, TX",285,30.0357761,-95.4288254
1508295,8068900,"Cypress Ck at Stuebner-Airline Rd nr Westfield, TX",248,30.0066109,-95.5118866
1509175,8068800,"Cypress Ck at Grant Rd nr Cypress, TX",214,29.9735565,-95.5985565
1509209,8068740,"Cypress Ck at House-Hahl Rd nr Cypress, TX",131,29.9591122,-95.7177277
1508045,8068450,"Panther Br nr Spring, TX",34.5,30.1343822,-95.4777145
1507967,8068400,"Panther Br at Gosling Rd, The Woodlands, TX",25.8999996,30.1921597,-95.4838257
1508263,8068390,"Bear Br at Research Blvd, The Woodlands, TX",15.3999996,30.1905556,-95.4911118
1508121,8068780,"Little Cypress Ck nr Cypress, TX",41,30.0160542,-95.6974487
1520249,8070500,"Caney Ck nr Splendora, TX",105,30.2596588,-95.3024368
1440227,8074150,"Cole Ck at Deihl Rd, Houston, TX",7.5,29.8513374,-95.487999
1438283,8075900,"Greens Bayou nr US Hwy 75 nr Houston, TX",36.5999985,29.9568882,-95.4179916
1440183,8076000,"Greens Bayou nr Houston, TX",68.6999969,29.9182777,-95.3068771
1440291,8074500,"Whiteoak Bayou at Houston, TX",95.0999985,29.7752285,-95.3971634
1438725,8074020,"Whiteoak Bayou at Alabonson Rd, Houston, TX",34.5,29.8707809,-95.4804993
1439377,8073700,"Buffalo Bayou at Piney Point, TX",299,29.7468967,-95.5235519
1439357,8073600,"Buffalo Bayou at W Belt Dr, Houston, TX",290,29.7621727,-95.557724
1439317,8073500,"Buffalo Bayou nr Addicks, TX",277,29.7618961,-95.6057816
1440385,8075000,"Brays Bayou at Houston, TX",94.9000015,29.6971741,-95.4121628
1439635,8074810,"Brays Bayou at Gessner Dr, Houston, TX",52.5,29.6727314,-95.5282745
1439495,8074760,"Brays Bayou at Alief, TX",15,29.7091198,-95.5830002
1440395,8074800,"Keegans Bayou at Roark Rd nr Houston, TX",12.6999998,29.6566219,-95.5621643
1440277,8075770,"Hunting Bayou at IH 610, Houston, TX",16.1000004,29.7932816,-95.2679901
1439055,8075763,"Hunting Bayou at Hoffman St, Houston, TX",7.21,29.8088379,-95.3132706
1439229,8074540,"Little Whiteoak Bayou at Trimble St, Houston, TX",18.1000004,29.792778,-95.3680573
1439685,8075500,"Sims Bayou at Houston, TX",63,29.6743965,-95.2893829
1439761,8075400,"Sims Bayou at Hiram Clarke St, Houston, TX",20.2000008,29.6188431,-95.4460526
1440245,8074250,"Brickhouse Gully at Costa Rica St, Houston, TX",11.3999996,29.8280048,-95.4693832
1440211,8072760,"Langham Ck at W Little York Rd nr Addicks, TX",24.6000004,29.8671703,-95.6466141
1438277,8075780,"Greens Bayou at Cutten Rd nr Houston, TX",8.6499996,29.9491119,-95.5196609
1438379,8076180,"Garners Bayou nr Humble, TX",31,29.9338608,-95.233963
1438737,8076500,"Halls Bayou at Houston, TX",28.7000008,29.8618908,-95.334938
1440237,8072730,"Bear Ck nr Barker, TX",21.5,29.8307819,-95.6868896
1562342,8076997,"TCEQQW Clear Ck at Mykawa St nr Pearland, TX",32.7000008,29.596899,-95.2974396
1566188,8078000,"Chocolate Bayou nr Alvin, TX",87.6999969,29.3715439,-95.3230438
3123676,8116400,"Dry Ck nr Rosenberg, TX",8.6499996,29.5119057,-95.7468948
3124642,8116650,"Brazos Rv nr Rosharon, TX",45339,29.3496857,-95.5824432
3123784,8114000,"Brazos Rv at Richmond, TX",45107,29.5824585,-95.7577286
1509241,8068720,"Cypress Ck at Katy-Hockley Rd nr Hockley, TX",110,29.9502239,-95.8082809
1440311,8072300,"Buffalo Bayou nr Katy, TX",63.2999992,29.7432861,-95.8068924
3122466,8111700,"Mill Ck nr Bellville, TX",376,29.8810616,-96.2052383
3124582,8115000,"Big Ck nr Needville, TX",42.7999992,29.4766293,-95.8127289
3121538,8111500,"Brazos Rv nr Hempstead, TX",43880,30.1291065,-96.1877365
3764246,8162000,"Colorado Rv at Wharton, TX",42003,29.3091373,-96.1038513
1607520,8117500,"San Bernard Rv nr Boling, TX",727,29.3135796,-95.8938446
5570395,8109700,"Middle Yegua Ck nr Dime Box, TX",236,30.3393784,-96.9047012
5570685,8110000,"Yegua Ck nr Somerville, TX",1009,30.3218765,-96.5074692
5791670,8160800,"Redgate Ck nr Columbus, TX",17.2999992,29.7991199,-96.532196
5791934,8161000,"Colorado Rv at Columbus, TX",41640,29.7063446,-96.5369186
5791848,8160400,"Colorado Rv abv La Grange, TX",40874,29.912447,-96.9038696
7846049,8164300,"Navidad Rv nr Hallettsville, TX",332,29.4669075,-96.8127594
5790058,8159500,"Colorado Rv at Smithville, TX",40371,30.0127201,-97.1619339
5790218,8159200,"Colorado Rv at Bastrop, TX",39979,30.1046619,-97.3194351
7841703,8163500,"Lavaca Rv at Hallettsville, TX",108,29.4432964,-96.9449844
1622763,8174600,"Peach Ck bl Dilworth, TX",460,29.4741287,-97.316658
5781313,8156910,"Waller Ck at Koenig Lane, Austin, TX",1.09,30.3227787,-97.7227783
5781345,8158920,"Williamson Ck at Oak Hill, TX",6.3000002,30.2352085,-97.8602829
5781353,8158927,"Kincheon Br at William Cannon Blvd, Austin, TX",6.73,30.2124729,-97.8288574
5781709,8155541,"W Bouldin Ck at Oltorf Rd, Austin, TX",1.77,30.246666,-97.769165
5781285,8158600,"Walnut Ck at Webberville Rd, Austin, TX",51.2999992,30.2832642,-97.6550064
5781711,8155400,"Barton Ck abv Barton Spgs at Austin, TX",125,30.2635422,-97.7722244
5781337,8155300,"Barton Ck at Loop 360, Austin, TX",116,30.2446537,-97.8022308
5781325,8155240,"Barton Ck at Lost Ck Blvd nr Austin, TX",107,30.2740955,-97.8447266
5781265,8155200,"Barton Ck at SH 71 nr Oak Hill, TX",89.6999969,30.2963161,-97.9255676
5781369,8159000,"Onion Ck at US Hwy 183, Austin, TX",321,30.17799,-97.6886139
5781407,8158860,"Slaughter Ck at FM 2304 nr Austin, TX",23.1000004,30.1621552,-97.8322296
5781373,8158840,"Slaughter Ck at FM 1826 nr Austin, TX",8.2399998,30.2090969,-97.9033432
5781431,8158827,"Onion Ck at Twin Creeks Rd nr Manchaca, TX",181,30.1263237,-97.8211136
5781731,8158970,"Williamson Ck at Jimmy Clay Rd, Austin, TX",27.6000004,30.1893787,-97.7325058
5781961,8158000,"Colorado Rv at Austin, TX",39009,30.2461395,-97.6800537
5781319,8158030,"Boggy Ck at Manor Rd, Austin, TX",1.67,30.2861118,-97.7086105
5781291,8158045,"Ft Br Boggy Ck at Manor Rd, Austin, TX",1.47,30.3005562,-97.6855545
5781703,8156800,"Shoal Ck at W 12th St, Austin, TX",12.3000002,30.276598,-97.7502823
5781893,8155500,"Barton Spgs at Austin, TX",0,30.2635422,-97.7713928
1620877,8169792,"Guadalupe Rv at FM 1117 nr Seguin, TX",1957,29.5361671,-97.8809433
1622713,8173900,"Guadalupe Rv at Gonzales, TX",3490,29.4844036,-97.4502716
1631587,8173000,"Plum Ck nr Luling, TX",309,29.6996727,-97.6036072
1631087,8172400,"Plum Ck at Lockhart, TX",112,29.9229984,-97.6791687
1631387,8172000,"San Marcos Rv at Luling, TX",838,29.6663399,-97.6508331
1631023,8171300,"Blanco Rv nr Kyle, TX",412,29.9793835,-97.9100037
5781401,8158810,"Bear Ck bl FM 1826 nr Driftwood, TX",12.1999998,30.1554871,-97.9400101
5780099,8158700,"Onion Ck nr Driftwood, TX",124,30.0829887,-98.0077896
5786075,8153500,"Pedernales Rv nr Johnson City, TX",901,30.2918663,-98.3994675
3589120,8167500,"Guadalupe Rv nr Spring Branch, TX",1315,29.8604965,-98.3836288
1619595,8167800,"Guadalupe Rv at Sattler, TX",1436,29.859108,-98.1800079
1619649,8169000,"Comal Rv at New Braunfels, TX",130,29.7060585,-98.1225052
1619663,8168797,"Dry Comal Ck at Loop 337 nr New Braunfels, TX",107,29.6879997,-98.1548309
1620031,8168500,"Guadalupe Rv abv Comal Rv at New Braunfels, TX",1518,29.7149467,-98.1100082
1629555,8171290,"Blanco Rv at Halifax Rch nr Kyle, TX",391,30.0055561,-97.9524994
1630223,8171000,"Blanco Rv at Wimberley, TX",355,29.994381,-98.0888977
1631099,8170500,"San Marcos Rv at San Marcos, TX",48.9000015,29.8891087,-97.9341736
10840488,8178800,"Salado Ck at Loop 13, San Antonio, TX",189,29.3571796,-98.412796
10840232,8178700,"Salado Ck at Loop 410, San Antonio, TX",137,29.5160637,-98.4311295
10840502,8178565,"San Antonio Rv at Loop 410, San Antonio, TX",125,29.3221817,-98.4502945
10840810,8177700,"Olmos Ck at Dresden Dr, San Antonio, TX",21.2000008,29.4991188,-98.5102921
10840818,8178000,"San Antonio Rv at San Antonio, TX",41.7999992,29.4096775,-98.495018
7850687,8185065,"Cibolo Ck nr Saint Hedwig, TX",306,29.5014439,-98.1862488
7851041,8185000,"Cibolo Ck at Selma, TX",274,29.5941162,-98.3111267
5785479,8152900,"Pedernales Rv nr Fredericksburg, TX",369,30.2204819,-98.8697586
3589508,8167000,"Guadalupe Rv at Comfort, TX",839,29.9652386,-98.8971634
10840230,8178593,"Salado Ck at Blanco Rd. San Antonio, Tx",31.7999992,29.5638618,-98.5196686
10836388,8181480,"Leon Ck at IH 35, San Antonio, TX",219,29.329958,-98.5841827
10836042,8180720,"Medina Rv nr Von Ormy, TX",900,29.2952366,-98.6422424
10835974,8180700,"Medina Rv nr Macdona, TX",885,29.3349571,-98.689743
10833740,8178880,"Medina Rv at Bandera, TX",328,29.723835,-99.0700378
10835030,8181400,"Helotes Ck at Helotes, TX",15,29.5785618,-98.6916885
7850595,8183900,"Cibolo Ck nr Boerne, TX",68.4000015,29.7749882,-98.7094727
3587616,8166250,"Guadalupe Rv nr Center Point, TX",553,29.9877777,-99.1100006
3585626,8166140,"Guadalupe Rv abv Bear Ck at Kerrville, TX",494,30.0696545,-99.1953201
3585554,8166000,"Johnson Ck nr Ingram, TX",114,30.1002064,-99.2831039
3586192,8165500,"Guadalupe Rv at Hunt, TX",288,30.069931,-99.3217087
3585678,8165300,"N Fk Guadalupe Rv nr Hunt, TX",169,30.0640984,-99.3869934
3585724,8166200,"Guadalupe Rv at Kerrville, TX",510,30.0532665,-99.1633759
10655685,8200720,"Hondo Ck at SH 173 nr Hondo, TX",157,29.376112,-99.1166687
10654651,8200000,"Hondo Ck nr Tarpley, TX",95.5999985,29.5700302,-99.2476883
10655687,8202700,"Seco Ck at Rowe Rh nr D'Hanis, TX",168,29.3707886,-99.2878189
10653905,8201500,"Seco Ck at Miller Rh nr Utopia, TX",45,29.5732841,-99.4030991
10653947,8200977,"Middle Verde Ck at SH 173 nr Bandera, TX",38.9000015,29.5677776,-99.0969467
10646003,8198500,"Sabinal Rv at Sabinal, TX",241,29.3143063,-99.4804688
10645747,8198000,"Sabinal Rv nr Sabinal, TX",206,29.4910641,-99.4928207
10645755,8195000,"Frio Rv at Concan, TX",389,29.4885654,-99.7047729
10644541,8196000,"Dry Frio Rv nr Reagan Wells, TX",126,29.5046749,-99.7814484
7872253,8190000,"Nueces Rv at Laguna, TX",737,29.428566,-99.9972839
7869629,818999010,"Nueces Rv nr Barksdale, TX",351,29.7188339,-100.0395737
7876116,8190500,"W Nueces Rv nr Brackettville, TX",694,29.4810829,-100.2391663
299935,8376300,"Sanderson Ck at Sanderson, TX",195,30.1285191,-102.3848648
333056,8447300,"Pecos Rv at Brotherton Rh nr Pandale, TX",42169,30.3139992,-101.7415543
945050169,9470500,"SAN PEDRO RIVER AT PALOMINAS, AZ.",737,31.3801003,-110.1111908
15907959,9480500,"SANTA CRUZ RIVER NEAR NOGALES, AZ.",533,31.3445435,-110.8514709
15907945,9481000,"NOGALES WASH AT NOGALES, AZ",29.2999992,31.3432713,-110.9316711
20372805,9537500,"WHITEWATER DRAW NEAR DOUGLAS, AZ.",1023,31.3523254,-109.5850677
3213331,8446500,"Pecos Rv nr Girvin, TX",37300,31.113203,-102.4176407
3212475,8437710,"Pecos Rv at RR 1776 nr Grandfalls, TX",34740,31.366806,-103.0059891
20749139,8433000,"Barrilla Draw nr Saragosa, TX",612,30.9579277,-103.4596176
332712,8447000,"Pecos Rv nr Sheffield, TX",40685,30.6596146,-101.7701263
3158167,8447020,"Independence Ck nr Sheffield, TX",763,30.4521217,-101.7331772
5702807,8128000,"S Concho Rv at Christoval, TX",413,31.1871128,-100.502037
5702253,8131400,"Pecan Ck nr San Angelo, TX",81.0999985,31.3090534,-100.4459229
5702879,8130700,"Spring Ck abv Twin Buttes Res nr San Angelo, TX",688,31.3309975,-100.6009293
5747704,8144500,"San Saba Rv at Menard, TX",1135,30.9190617,-99.7856216
5761759,8148500,"N Llano Rv nr Junction, TX",914,30.5174103,-99.8061752
5770577,8150000,"Llano Rv nr Junction, TX",1854,30.5043545,-99.7345123
5753504,8145000,"Brady Ck at Brady, TX",588,31.1382236,-99.3350525
5746512,8146000,"San Saba Rv at San Saba, TX",3046,31.2132225,-98.7194901
5769807,8150700,"Llano Rv nr Mason, TX",3247,30.6607361,-99.1092148
5770545,8150800,"Beaver Ck nr Mason, TX",215,30.6435146,-99.0958862
5756726,8147000,"Colorado Rv nr San Saba, TX",31217,31.2179451,-98.5644836
5757354,8152000,"Sandy Ck nr Kingsland, TX",346,30.5576897,-98.4722519
5771725,8151500,"Llano Rv at Llano, TX",4197,30.7512894,-98.6697617
2580511,8101000,"Cowhouse Ck at Pidcoke, TX",455,31.2848911,-97.885025
5586798,8103800,"Lampasas Rv nr Kempner, TX",818,31.07934,-98.0166931
5587890,8103900,"S Fk Rocky Ck nr Briggs, TX",33.2999992,30.9115677,-98.0369644
5670841,8105095,"Berry Ck at Airport Rd nr Georgetown, TX",71.4000015,30.7032471,-97.6663971
5670899,8104700,"N Fk San Gabriel Rv nr Georgetown, TX",248,30.6618595,-97.7114029
5670825,810464660,"N Fk San Gabriel Rv at Reagan Blvd nr Leander, TX",210,30.6977501,-97.8492203
5671579,8104900,"S Fk San Gabriel Rv at Georgetown, TX",133,30.6257496,-97.691124
5781203,8158380,"Little Walnut Ck at Georgian Dr, Austin, TX",5.2199998,30.354372,-97.6980591
5781217,8158200,"Walnut Ck at Dessau Rd, Austin, TX",26.2000008,30.3752041,-97.6605606
5781189,8154700,"Bull Ck at Loop 360 nr Austin, TX",22.2999992,30.3721485,-97.784729
5781223,8156675,"Shoal Ck at Silverway Dr, Austin, TX",5.5900002,30.354166,-97.7388916
2572116,8102500,"Leon Rv nr Belton, TX",3582,31.070179,-97.4413986
5587556,8104100,"Lampasas Rv nr Belton, TX",1321,31.0018482,-97.4925079
5592244,8104500,"Little Rv nr Little River, TX",5228,30.9665718,-97.3461151
5670795,8105700,"San Gabriel Rv at Laneport, TX",738,30.6943607,-97.2788849
5670779,8105505,"Willis Ck nr Granger, TX",57.7999992,30.7021675,-97.434166
5555300,8098300,"Little Pond Ck nr Burlington, TX",23,31.0265732,-96.9883194
5558060,8108700,"Brazos Rv at SH 21 nr Bryan, TX",39049,30.6268673,-96.544136
5555562,8098290,"Brazos Rv nr Highbank, TX",30436,31.1340714,-96.8249817
5570225,8110100,"Davidson Ck nr Lyons, TX",195,30.419651,-96.5402451
5570253,8109800,"E Yegua Ck nr Dime Box, TX",244,30.4074306,-96.817482
5593046,8108250,"Big Elm Ck at SH 77 nr Cameron, TX",314,30.903244,-96.9791565
5593118,8106500,"Little Rv nr Cameron, TX",7065,30.8351898,-96.9466476
5592482,8106350,"Little Rv nr Rockdale, TX",6959,30.7607479,-97.0138779
5577121,8110800,"Navasota Rv at Old Spanish Rd nr Bryan, TX",1287,30.9737988,-96.2416306
5575763,8110500,"Navasota Rv nr Easterly, TX",968,31.1701813,-96.2977448
1491202,8065800,"Bedias Ck nr Madisonville, TX",321,30.8847218,-95.7777786
1484774,8065350,"Trinity Rv nr Crockett, TX",13911,31.3385124,-95.6563416
1467944,8067650,"W Fk San Jacinto Rv bl Lk Conroe nr Conroe, TX",451,30.3421535,-95.5429993
1465746,8067548,"W Fk San Jacinto Rv nr Huntsville, TX",84.9000015,30.6460304,-95.6752243
1487570,8066200,"Long King Ck at Livingston, TX",141,30.7163067,-94.9588242
1487840,8066250,"Trinity Rv nr Goodrich, TX",16844,30.5721455,-94.948822
1520007,8070000,"E Fk San Jacinto Rv nr Cleveland, TX",325,30.3365974,-95.1041031
1079041,8033000,"Neches Rv nr Diboll, TX",2724,31.1329651,-94.8099289
1109655,8033500,"Neches Rv nr Rockland, TX",3636,31.0249996,-94.3994446
1494036,8066300,"Menard Ck nr Rye, TX",152,30.4813881,-94.7797241
1513293,8066500,"Trinity Rv at Romayor, TX",17186,30.4252071,-94.8507614
1114207,8041000,"Neches Rv at Evadale, TX",7951,30.3557644,-94.0932388
1111453,8040600,"Neches Rv nr Town Bluff, TX",7574,30.7910366,-94.1510239
1159329,8039100,"Ayish Bayou nr San Augustine, TX",89,31.3962955,-94.1510315
1166409,8041500,"Village Ck nr Kountze, TX",860,30.3979855,-94.2635193
8330800,8028500,"Sabine Rv nr Bon Wier, TX",8229,30.7471447,-93.6085052
8329788,8026000,"Sabine Rv nr Burkeville, TX",7482,31.0640793,-93.5196152
8330722,8029500,"Big Cow Ck nr Newton, TX",128,30.8188896,-93.785553
8328658,8025360,"Sabine Rv at Toledo Bd Res nr Burkeville, TX",7178,31.1737995,-93.5660095
8329634,8025500,"Bayou Toro near Toro, LA",148,31.307127,-93.5157318
15078776,8014800,"Bundick Creek near DeRidder, LA",120,30.8188057,-93.2301636
8330660,8028000,"Bayou Anacoco near Rosepine, LA",365,30.9529705,-93.3529434
15085965,8015500,"Calcasieu River near Kinder, LA",1700,30.5025558,-92.9154129
15078398,8014500,"Ouiska Chitto Creek Near Oberlin, LA",510,30.6987495,-92.8931961
15139713,8012000,"Bayou Nezpique near Basile, LA",527,30.4807777,-92.631752
15085713,8013500,"Calcasieu River near Oberlin, LA",753,30.6404762,-92.8140335
15085941,8013000,"Calcasieu River nr Glenmora, LA",499,30.996666,-92.6736145
15147890,7382000,"Bayou Cocodrie near Clearwater, LA",240,31.0002785,-92.3802795
15140365,8010000,"Bayou Des Cannes near Eunice, LA",131,30.4828892,-92.4906921
15148368,7382500,"Bayou Courtableau at Washington, LA",715,30.6182518,-92.0556717
15143238,7383500,"Bayou Des Glaises Diversion Ch. at Moreauville, LA",270,31.0332432,-91.9826202
15169531,7381490,"Atchafalaya River at Simmesport, LA",87570,30.9825001,-91.7983322
19406818,7381482,Old River Outflow Channel below Hydropower Channel,0,31.0667496,-91.6482773
19112978,7292500,"HOMOCHITTO RIVER AT ROSETTA, MS",787,31.3247223,-91.1094437
19104913,7295000,"BUFFALO RIVER NR WOODVILLE, MS",180,31.226944,-91.2955551
19088319,7374000,"Mississippi River at Baton Rouge, LA",1125810,30.4456673,-91.1915588
18988606,7378000,"Comite River near Comite, LA",284,30.5126896,-91.0737152
18988724,7377500,"Comite River near Olive Branch, LA",145,30.7565727,-91.0439911
18990204,7378500,"Amite River near Denham Springs, LA",1280,30.4640789,-90.9903793
18985872,7377000,"Amite River near Darlington, LA",580,30.8890686,-90.8445435
20090368,7376000,"Tickfaw River at Holden, LA",247,30.5038013,-90.6773148
20089222,7375800,"Tickfaw River at Liverpool, LA",89.6999969,30.9307365,-90.6734314
20090348,7376500,"Natalbany River at Baptist, LA",79.5,30.5043583,-90.5459213
20089890,7375960,"Tickfaw River at Montpelier, LA",220,30.6862965,-90.6431503
18972763,7375280,"TANGIPAHOA RIVER AT OSYKA, MS",158,31.0122223,-90.461113
18975529,7375500,"Tangipahoa River at Robert, LA",646,30.5065804,-90.3617554
15687631,2490500,"BOGUE CHITTO NR TYLERTOWN, MS",492,31.1769447,-90.2794418
18928210,7375000,"Tchefuncte River near Folsom, LA",103,30.6160221,-90.2486954
15702833,2489000,"PEARL RIVER NR COLUMBIA, MS",5720,31.2377777,-89.8469467
15690765,2492000,"Bogue Chitto River near Bush, LA",1213,30.6293564,-89.8972931
15708443,2489500,"Pearl River near Bogalusa, LA",6573,30.7932434,-89.8209076
933180299,2492111,"WILSON SLOUGH NEAR WALKIAH BLUFF, MS",0,30.5702782,-89.8111115
15720689,2492110,"EAST PEARL RIVER AB WILSON SL AT WALKIAH BLUFF, MS",0,30.5716667,-89.8061142
15714395,2492620,"PEARL RIVER AT NSTL STATION, MS",0,30.3524151,-89.6458893
15707325,2492360,"WEST HOBOLOCHITTO CREEK NR MCNEILL, MS",175,30.6622219,-89.6861115
15707813,2492343,"EAST HOBOLOCHITTO CREEK NR CAESAR, MS",86.0999985,30.5741673,-89.5947189
18135826,2473000,"LEAF RIVER AT HATTIESBURG, MS",1748,31.3430557,-89.2802811
18075806,2481510,"WOLF RIVER NR LANDON, MS",308,30.4836102,-89.2744446
18135774,2474500,"TALLAHALA CREEK NR RUNNELSTOWN, MS",612,31.332777,-89.1125031
18105054,2479130,"BLACK CREEK NR BROOKLYN, MS",355,31.0519447,-89.2041702
18070104,2481000,"BILOXI RIVER AT WORTHAM, MS",96.1999969,30.5586109,-89.1219406
18135958,2474560,"LEAF RIVER NR NEW AUGUSTA, MS",2542,31.2216663,-89.0530548
18105412,2479155,"CYPRESS CREEK NR JANICE, MS",52.5999985,31.0252781,-89.0166702
18134412,2475000,"LEAF RIVER NR MCLAIN, MS",3495,31.1027775,-88.8083344
18107248,2479300,"RED CREEK AT VESTRY, MS",441,30.7361107,-88.7811127
18121240,2479310,"PASCAGOULA RIVER AT GRAHAM FERRY, MS",8204,30.6105556,-88.6413879
18121032,2479000,"PASCAGOULA RIVER AT MERRILL, MS",6590,30.978056,-88.726944
18172814,2478500,"CHICKASAWHAY RIVER AT LEAKESVILLE, MS",2690,31.1486111,-88.5480576
18094191,2479945,"BIG CREEK AT COUNTY RD 63 NEAR WILMER, AL.",31.4799995,30.85602,-88.3339005
18094981,2479560,ESCATAWPA RIVER NEAR AGRICOLA MS,562,30.8118553,-88.4586258
18094345,2479980,"CROOKED CREEK NEAR FAIRVIEW, AL.",8.0799999,30.7801876,-88.3189011
18523647,2471001,CHICKASAW CREEK NEAR KUSHLA AL,125,30.8029652,-88.1433334
18515610,2471078,"FOWL RIVER AT HALF-MILE RD NEAR LAURENDINE, AL.",16.5,30.5007515,-88.1813889
18095029,2480002,"HAMILTON CREEK AT SNOW ROAD NEAR SEMMES, AL.",8.2200003,30.7260227,-88.2763977
10854075,2378170,"WOLF CREEK BELOW FOLEY, ALA",4.98,30.3882542,-87.6527634
18516128,2378300,"MAGNOLIA RIVER AT US 98 NEAR FOLEY, ALABAMA",16.6000004,30.4065876,-87.7369308
18514402,2378500,FISH RIVER NEAR SILVER HILL AL,55.2999992,30.5454712,-87.7985992
2172289,2376500,"PERDIDO RIVER AT BARRINEAU PARK, FL",394,30.6904678,-87.4402542
2171877,2376293,"BRUSHY CREEK NEAR BRATT, FL",26.5,30.9785156,-87.528038
2171465,2377570,"STYX RIVER NEAR ELSANOR, AL.",192,30.6057491,-87.5472031
10854185,2376100,"BAYOU MARCUS CREEK NR PENSACOLA,FLA",10.8000002,30.4482536,-87.2905273
10853975,2376115,"ELEVENMILE CREEK NEAR PENSACOLA, FL.",27.7999992,30.498251,-87.3358078
448444,2375500,"ESCAMBIA RIVER NEAR CENTURY, FL",3817,30.9651833,-87.2341385
445834,2374950,BIG ESCAMBIA CR AT SARDINE BR NR STANLEY CROSSROAD,193,31.1296215,-87.3705368
446386,2375000,BIG ESCAMBIA CREEK AT FLOMATON AL,330,31.0107365,-87.2627487
2413254,2374745,"BURNT CORN CREEK AT STATE HWY 41 NEAR BREWTON, AL.",182,31.1299,-87.0871964
2413350,2374700,"MURDER CREEK AT STATE HWY 41 AT BREWTON, AL.",435,31.1010113,-87.0688553
2413994,2374250,"CONECUH RIVER AT STATE HWY 41 NEAR BREWTON, AL.",2661,31.0671234,-87.0616379
897999,2369600,"YELLOW RIVER NR MILTON, FLA.",1340,30.5696392,-86.9235764
792126,2370500,"BIG COLDWATER CREEK NR MILTON, FLA.",237,30.7085228,-86.9721832
897821,2368000,"YELLOW RIVER AT MILLIGAN, FLA.",624,30.7529659,-86.6291199
791526,2370000,"BLACKWATER RIVER NR BAKER, FLA.",205,30.833519,-86.7346802
789206,2369800,BLACKWATER RIVER NEAR BRADLEY AL,87.6999969,31.0276794,-86.7099533
476941,2367310,"JUNIPER CREEK AT STATE HWY 85 NR NICEVILLE, FLA.",27.6000004,30.5574188,-86.5193939
896197,2367900,"YELLOW RIVER NR OAK GROVE, FLA.",510,30.9251823,-86.5593948
26823380,2369000,"SHOAL RIVER NR CRESTVIEW, FLA.",474,30.6974125,-86.5707855
2378189,2372430,"CONECUH RIVER AT RIVER FALLS, ALABAMA",1277,31.3482246,-86.5294037
2378929,2372422,"CONECUH RIVER BEL PT A DAM NR RIVER FALLS, AL.",1273,31.3612804,-86.5196838
896891,2368500,"SHOAL RIVER NR MOSSY HEAD, FLA.",123,30.7960205,-86.3068924
476177,2366996,"ALAQUA CREEK NEAR PLEASANT RIDGE, FL",39.0999985,30.6690807,-86.1866074
2214110,2364500,PEA RIVER NEAR SAMSON AL,1182,31.1126766,-86.0993881
2188549,2362240,"LITTLE DOUBLE BRIDGES CREEK NR ENTERPRISE, AL.",21.3999996,31.2723923,-85.9582748
2244465,2366500,"CHOCTAWHATCHEE RIVER NR BRUCE, FLA.",4384,30.4510288,-85.8982697
2242015,2365200,"CHOCTAWHATCHEE RIVER NR PITTMAN, FLA.",3209,30.9499035,-85.8429871
2241851,2365769,"BRUCE CREEK AT SH 81 NR REDBAY, FL",82.4000015,30.6246357,-85.9424362
2189757,2361500,CHOCTAWHATCHEE RIVER NEAR BELLWOOD AL,1280,31.1593418,-85.7843781
2188031,2361000,"CHOCTAWHATCHEE RIVER NEAR NEWTON, AL.",686,31.3429489,-85.6104889
2242113,2365500,"CHOCTAWHATCHEE RIVER AT CARYVILLE, FLA.",3499,30.7757435,-85.827713
2240423,2365470,"WRIGHTS CREEK AT SH 177-A NR BONIFAY,FL",148,30.8571301,-85.7621536
2241831,2366000,"HOLMES CREEK AT VERNON, FLA.",386,30.6268597,-85.7121506
2178951,2359500,"ECONFINA CREEK NEAR BENNETT, FLA.",122,30.3846397,-85.5565948
2133672,2359000,"CHIPOLA RIVER NR ALTHA, FLA.",781,30.5340824,-85.1651993
2134102,2358789,CHIPOLA RIVER AT MARIANNA FL,464,30.7729702,-85.2163162
10365534,2330100,"TELOGIA CREEK NR BRISTOL, FLA.",126,30.4265842,-84.9276962
2310009,2343940,"SAWHATCHEE CREEK AT CEDAR SPRINGS, GA",64.1999969,31.1808338,-85.0436096
3516630,2357000,"SPRING CREEK NEAR IRON CITY, GA",490,31.0402775,-84.7399979
2293124,2358000,APALACHICOLA RIVER AT CHATTAHOOCHEE FLA,17200,30.701025,-84.8590851
2297254,2358700,"APALACHICOLA RIVER NR BLOUNTSTOWN,FLORIDA",17600,30.4251957,-85.0313034
10363292,2329500,"LITTLE RIVER NR QUINCY, FLA.",237,30.5874176,-84.4965744
10362924,2329000,"OCHLOCKONEE RIVER NR HAVANA, FLA.",1140,30.5540867,-84.3840714
10362340,2329342,"LITTLE ATTAPULGUS CREEK AT ATTAPULGUS, GA",17.2999992,30.7355556,-84.4969406
10363648,2329600,"LITTLE RIVER NR MIDWAY, FLA.",305,30.5124187,-84.5235214
10366208,2330000,"OCHLOCKONEE RIVER NR BLOXHAM, FLA.",1700,30.3832531,-84.6549072
3424532,2355662,"FLINT RIVER AT RIVERVIEW PLANTATION, NR HOPEFUL,GA",6930,31.1405563,-84.480278
3424530,2353000,"FLINT RIVER AT NEWTON, GA",5740,31.3069439,-84.3388901
3425836,2356000,"FLINT RIVER AT BAINBRIDGE, GA",7570,30.9115772,-84.5799179
6471862,2355350,"ICHAWAYNOCHAWAY CREEK BELOW NEWTON, GA",1040,31.2175007,-84.4708328
6471984,2354800,"ICHAWAYNOCHAWAY CREEK NEAR ELMODEL, GA",1000,31.2938881,-84.4919434
6471974,2354500,"CHICKASAWHATCHEE CREEK AT ELMODEL, GA",320,31.3505554,-84.4824982
6471976,2353500,"ICHAWAYNOCHAWAY CREEK AT MILFORD, GA",620,31.3827782,-84.5463867
10362516,2328522,"OCHLOCKONEE RIVER NR CONCORD, FLA.",1002,30.6690845,-84.3051834
2952892,2327500,"OCHLOCKONEE RIVER NEAR THOMASVILLE, GA",550,30.8757477,-84.0454483
2948194,2327355,"OCHLOCKONEE RIVER AT GA 188, NEAR COOLIDGE, GA",260,31.0022221,-83.9391632
2287321,2326500,"AUCILLA RIVER AT LAMONT, FLA.",747,30.3699284,-83.8068237
2066998,2318500,"WITHLACOOCHEE RIVER AT US 84, NEAR QUITMAN, GA",1480,30.7930565,-83.4536133
2066932,2318700,"OKAPILCO CREEK AT GA 333, NEAR QUITMAN, GA",269,30.8255558,-83.5625
2146447,2318380,"LITTLE RIVER AT GA 122, NEAR HAHIRA, GA",776,31.0010262,-83.4582138
2146221,2318000,"LITTLE RIVER NEAR ADEL, GA",577,31.1555557,-83.5436096
166743979,2315550,SUWANNEE RIVER AT SUWANNEE SPRINGS FLA,2630,30.3929996,-82.9331894
1997572,2315000,SUWANNEE R NR BENTON FLA,2090,30.5074406,-82.7162399
2016602,2317620,ALAPAHA RIVER NEAR JENNINGS FLA,1680,30.5982685,-83.0731964
2016562,2317500,"ALAPAHA RIVER AT STATENVILLE, GA",1370,30.7040997,-83.0331955
2014298,2316000,"ALAPAHA RIVER NEAR ALAPAHA, GA",663,31.3843632,-83.1923752
2066534,23177483,"WITHLACOOCHEE RIVER AT MCMILLAN RD,NEAR BEMISS, GA",502,30.9526997,-83.268486
166758629,2319300,WITHLACOOCHEE RIVER NR MADISON FLA,2240,30.4824352,-83.2429199
166758628,2319394,"WITHLACOOCHEE RIVER NR LEE, FLA",2330,30.4104939,-83.1801376
2067240,2319000,"WITHLACOOCHEE RIVER NEAR PINETTA, FLA.",2120,30.5954876,-83.2595901
2230475,2319500,"SUWANNEE RIVER AT ELLAVILLE, FLA",6970,30.3846626,-83.1718063
6397833,2226362,"SATILLA RIVER AT GA 158, NEAR WAYCROSS, GA",888,31.3027096,-82.5612488
25253157,2227270,"ALABAHA RIVER AT GA 203, NEAR BLACKSHEAR, GA",381,31.3754921,-82.2887344
25253215,2226500,"SATILLA RIVER NEAR WAYCROSS, GA",1240,31.2382736,-82.3245697
18260325,2231000,"ST. MARYS RIVER NEAR MACCLENNY, FL",700,30.3588467,-82.0815048
18258887,2228500,"NORTH PRONG ST. MARYS RIVER AT MONIAC, GA",160,30.5177307,-82.2303925
1997544,2314500,"SUWANNEE RIVER AT US 441, AT FARGO, GA",1130,30.6805553,-82.5605545
6396033,2228000,"SATILLA RIVER AT ATKINSON, GA",2790,31.2206421,-81.8656616
20106819,2198690,"EBENEZER CREEK AT SPRINGFIELD, GA",162,32.3657455,-81.2973328
9944910,2202680,"OGEECHEE RIVER AT GA 204, NEAR ELLABELL, GA",2970,32.080204,-81.3853912
9944828,2202500,"OGEECHEE RIVER NEAR EDEN, GA",2650,32.1915894,-81.415947
9944858,2202600,"BLACK CREEK NEAR BLITCHTON, GA",232,32.1679802,-81.4881668
9927802,2203518,"CANOOCHEE RIVER AT BRIDGE 38, AT FORT STEWART, GA",1330,31.9694443,-81.4586105
6317069,2203559,"PEACOCK CREEK AT MCINTOSH, GA",0,31.8138237,-81.5201111
14347322,2226000,"ALTAMAHA RIVER AT DOCTORTOWN, GA",13600,31.6546593,-81.8278885
9922304,2203000,"CANOOCHEE RIVER NEAR CLAXTON, GA",555,32.1849136,-81.8887253
9915023,2227500,"LITTLE SATILLA RIVER NEAR OFFERMAN, GA",659,31.4513264,-82.0545578
14456153,2225500,"OHOOPEE RIVER NEAR REIDSVILLE, GA",1110,32.0785294,-82.1773453
14348516,2224940,"ALTAMAHA RIVER AT US 221, NR CHARLOTTEVILLE, GA",11400,31.9579659,-82.5170746
14348510,2225000,"ALTAMAHA RIVER NEAR BAXLEY, GA",11600,31.9390831,-82.3534622
14456417,2225270,"OHOOPEE RIVER AT GA 297, NEAR SWAINSBORO, GA",553,32.4404488,-82.3820724
1958701,2224500,"OCONEE RIVER NEAR MOUNT VERNON, GA",5110,32.1912918,-82.633194
6367034,2215500,"OCMULGEE RIVER AT LUMBER CITY, GA",5180,31.9201832,-82.6740265
6381757,2215900,"LITTLE OCMULGEE RIVER AT GA 149, AT SCOTLAND, GA",316,32.0523987,-82.8156967
6383975,2216180,"TURNPIKE CREEK NEAR MCRAE, GA",49.2000008,31.9913883,-82.9219437
2008788,2315920,"ALAPAHA RIVER AT GA 125/32 NEAR IRWINVILLE, GA",430,31.6312962,-83.4179382
6365360,2215000,"OCMULGEE RIVER AT US 341, AT HAWKINSVILLE, GA",3800,32.2807198,-83.4610062
6365072,2215100,"TUCSAWHATCHEE CREEK NEAR HAWKINSVILLE, GA",163,32.2394447,-83.5016632
2144821,2317797,"LITTLE RIVER AT UPPER TY TY ROAD, NEAR TIFTON, GA",129,31.4818497,-83.584053
6447636,2350512,"FLINT RIVER AT GA 32, NEAR OAKFIELD, GA",3880,31.7250004,-84.0186081
6442680,2349900,"TURKEY CREEK AT BYROMVILLE, GA",47.5,32.1955566,-83.9022217
6444276,2349605,"FLINT RIVER AT GA 26, NEAR MONTEZUMA, GA",2920,32.2930565,-84.0436096
6460241,2351890,"MUCKALEE CREEK AT GA 195, NEAR LEESBURG, GA",362,31.7761116,-84.1394424
6457483,2351500,"MUCKALEE CREEK NEAR AMERICUS, GA",140,32.0830574,-84.2580566
6460293,2350900,"KINCHAFOONEE CREEK AT PINEWOOD ROAD, NR DAWSON, GA",527,31.7644444,-84.253334
933130036,2352500,"FLINT RIVER AT ALBANY, GA",5310,31.5941658,-84.144165
6471708,2354475,"SPRING CREEK NEAR LEARY, GA",22.3999996,31.4655552,-84.4494476
6458195,2350600,"KINCHAFOONEE CREEK AT PRESTON, GA",197,32.0525017,-84.5483322
25727371,2353265,"ICHAWAYNOCHAWAY CREEK AT GA 37, NEAR MORGAN, GA",301,31.5269451,-84.5827789
6470130,2353400,"PACHITLA CREEK NEAR EDISON, GA",181,31.5550003,-84.6808319
3433426,2342850,"HANNAHATCHEE CREEK AT UNION ROAD, AT UNION, GA",121,32.1529312,-84.9057617
3432234,2341800,"UPATOI CREEK NEAR COLUMBUS, GA",342,32.4134789,-84.819931
3440880,2343225,"PATAULA CREEK NEAR GEORGETOWN, GA",295,31.8184948,-84.9738159
3435970,2342500,"UCHEE CREEK NEAR FORT MITCHELL, AL.",322,32.3168144,-85.0149307
2306737,23432415,"CHATTAHOOCHEE R .36 MI DS WFG DAM NR FT GAINES, GA",7460,31.6213894,-85.0599976
2210130,2363000,PEA RIVER NEAR ARITON AL,498,31.5948868,-85.7829971
2377281,2371500,CONECUH RIVER AT BRANTLEY AL,500,31.573494,-86.2516251
21719268,2419890,TALLAPOOSA RIVER NEAR MONT.-MONT. WATER WORKS,4646,32.4398575,-86.1955185
21682252,2421000,CATOMA CREEK NEAR MONTGOMERY AL,290,32.3073616,-86.2994156
2323396,2372250,PATSALIGA CREEK NEAR BRANTLEY AL,442,31.5962715,-86.4055176
2402121,2373000,SEPULGA RIVER NEAR MCKENZIE AL,470,31.4537754,-86.786911
933140017,2374500,MURDER CREEK NEAR EVERGREEN AL,176,31.4185009,-86.9866409
21457950,2427250,"PINE BARREN CREEK NEAR SNOW HILL, AL.",261,31.9962578,-87.0683212
21662336,2425000,CAHABA RIVER NEAR MARION JUNCTION AL,1766,32.4440231,-87.180275
21458394,2427830,"PURSLEY CREEK ABOVE ESTELLE, AL",21.7000008,31.9412594,-87.1866531
18239649,2428400,ALABAMA RIVER AT CLAIBORNE L&D NEAR MONROEVILLE,21473,31.6151581,-87.5505447
21638314,2470072,"BASSETT CREEK AT US HIGHWAY 43 NR THOMASVILLE, AL.",10.5,31.8640423,-87.7472229
21640642,2469800,SATILPA CREEK NEAR COFFEEVILLE AL,164,31.7443256,-88.0225067
18548516,2469761,"TOMBIGBEE R AT COFFEEVILLE L&D NR COFFEEVILLE, AL.",18417,31.7584915,-88.1291733
166759312,2476500,"SOWASHEE CREEK AT MERIDIAN, MS",52.0999985,32.3677788,-88.6772232
18195359,2476600,"OKATIBBEE CREEK AT ARUNDEL, MS",342,32.2983322,-88.7536087
18178477,2477000,"CHICKASAWHAY RIVER AT ENTERPRISE, MS",918,32.1758347,-88.819725
18194859,2475500,"CHUNKY RIVER NR CHUNKY, MS",369,32.3261108,-88.9091644
18131446,2473500,"TALLAHALA CREEK AT LAUREL, MS",238,31.6808338,-89.1155548
18130568,2473460,"TALLAHALA CREEK AT WALDRUP, MS",102,31.9661102,-89.1149979
18157053,2472500,"BOUIE CREEK NR HATTIESBURG, MS",304,31.4258327,-89.4147186
18156447,2472850,"OKATOMA CREEK AT SANFORD, MS",257,31.4891663,-89.4333344
18154237,2472000,"LEAF RIVER NR COLLINS, MS",743,31.7069435,-89.4069443
15759818,2487500,"STRONG RIVER AT D`LO, MS",425,31.9777775,-89.8974991
15737587,2488500,"PEARL RIVER NR MONTICELLO, MS",4993,31.5533333,-90.0880585
15758318,2486000,"PEARL RIVER AT JACKSON, MS",3171,32.2813873,-90.1788864
15756778,2486100,"LYNCH CREEK AT JACKSON, MS",12.1000004,32.2847214,-90.2149963
15758118,2485700,"HANGING MOSS CREEK NR JACKSON, MS",16.7999992,32.3650017,-90.144722
938060125,7290000,"BIG BLACK RIVER NR BOVINA, MS",2812,32.3477783,-90.6969452
19115892,7291000,"HOMOCHITTO RIVER AT EDDICETON, MS",181,31.5030556,-90.7774963
19138473,7290650,"BAYOU PIERRE NR WILLOWS, MS",654,32.0186119,-90.878334
19273960,7369500,"Tensas River at Tendal, LA",309,32.4320869,-91.3667831
19376770,7372200,"Little River near Rochelle, LA",1899,31.7543354,-92.3445816
19376616,7373000,"Big Creek at Pollock, LA",51,31.5362873,-92.4084702
15217033,7372050,"Dugdemona River near Joyce, LA",740,31.936945,-92.6033325
19913448,7352000,"Saline Bayou near Lucky, LA",154,32.2501564,-92.9765472
8343927,7351750,"Bayou Pierre near Lake End, LA",860,31.8946075,-93.341835
3761618,7349860,"Red Chute Bayou at Sligo, LA",980,32.4473763,-93.5946198
8342461,7351500,"Cypress Bayou near Keithville, LA",66,32.2999992,-93.827774
9533201,8023400,"Bayou San Patricio near Benson, LA",80.1999969,31.8751659,-93.6585159
9533087,8023080,"Bayou Grand Cane near Stanley, LA",72.5,31.9627228,-93.9411621
5278868,8022040,"Sabine Rv nr Beckville, TX",3589,32.3273773,-94.3535309
1157813,8038000,"Attoyac Bayou nr Chireno, TX",503,31.5043488,-94.3043671
5279488,8020900,"Sabine Rv bl Longview, TX",3155,32.4168167,-94.7099304
5278780,8020700,"Rabbit Ck at Kilgore, TX",75.8000031,32.3882065,-94.9032745
1150499,8036500,"Angelina Rv nr Alto, TX",1276,31.6718445,-94.952713
1149925,8033900,"E Fk Angelina Rv nr Cushing, TX",158,31.8601723,-94.8232727
1158005,8037050,"Bayou Lanana at Nacogdoches, TX",31.2999992,31.616291,-94.6413193
1151409,8034500,"Mud Ck nr Jacksonville, TX",376,31.9765549,-95.1607819
4452936,8032000,"Neches Rv nr Neches, TX",1145,31.8923912,-95.4307861
1453127,8065000,"Trinity Rv nr Oakwood, TX",12833,31.6485062,-95.7894058
1453353,8065200,"Upper Keechi Ck nr Oakwood, TX",150,31.5698967,-95.8882904
1262643,8062700,"Trinity Rv at Trinidad, TX",8538,32.1476517,-96.1024704
1262531,8062500,"Trinity Rv nr Rosser, TX",8147,32.4265289,-96.4630432
4133253,8063100,"Richland Ck nr Dawson, TX",333,31.9384899,-96.6813812
1446926,8063800,"Waxahachie Ck nr Bardwell, TX",178,32.2434807,-96.6402664
1446644,8064100,"Chambers Ck nr Rice, TX",807,32.1984825,-96.5202637
1454931,8064700,"Tehuacana Ck nr Streetman, TX",142,31.8484955,-96.289978
5574947,8110430,"Big Ck nr Freestone, TX",97.1999969,31.5068398,-96.3246918
5575031,8110325,"Navasota Rv abv Groesbeck, TX",239,31.574337,-96.520813
4133115,8063048,"White Rk Ck at FM 308 nr Irene, TX",65.8000031,31.978056,-96.8733368
1446498,8063590,"Waxahachie Ck at Waxahachie, TX",60.4000015,32.3822212,-96.8505554
5513784,8096500,"Brazos Rv at Waco, TX",29559,31.5360012,-97.0733337
5513718,8093100,"Brazos Rv nr Aquilla, TX",27244,31.8123817,-97.2977905
5512092,8092000,"Nolan Rv at Blum, TX",282,32.1507072,-97.4027939
5512008,8091500,"Paluxy Rv at Glen Rose, TX",410,32.2315331,-97.7772522
5512484,8091000,"Brazos Rv nr Glen Rose, TX",25818,32.2590332,-97.7025299
5523974,8095400,"Hog Ck nr Crawford, TX",78.1999969,31.5557194,-97.3563995
5523936,8095300,"Middle Bosque Rv nr McGregor, TX",182,31.5093327,-97.3658447
5531474,8095200,"N Bosque Rv at Valley Mills, TX",1146,31.6696053,-97.4694595
5531532,8095000,"N Bosque Rv nr Clifton, TX",968,31.7859917,-97.5680771
5530672,8094800,"N Bosque Rv at Hico, TX",359,31.9765358,-98.032814
2572206,8100500,"Leon Rv at Gatesville, TX",2342,31.4347229,-97.7583313
2569332,8100000,"Leon Rv nr Hamilton, TX",1891,31.788763,-98.1214218
2569756,8099500,"Leon Rv nr Hasse, TX",1261,31.9579239,-98.4592133
2567762,8099100,"Leon Rv nr De Leon, TX",479,32.1737518,-98.5331039
2567906,8099300,"Sabana Rv nr De Leon, TX",264,32.1140289,-98.6056061
5736179,8143600,"Pecan Bayou nr Mullin, TX",2073,31.5173855,-98.7406006
5491645,8083420,"Cat Claw Ck at Abilene, TX",13,32.4754028,-99.7492523
5656750,8127000,"Elm Ck at Ballinger, TX",450,31.7493172,-99.9478607
5654720,8126380,"Colorado Rv nr Ballinger, TX",16358,31.7154293,-100.026474
5718784,8136500,"Concho Rv at Paint Rock, TX",6574,31.5159912,-99.9195251
5727563,8136700,"Colorado Rv nr Stacy, TX",24193,31.4937687,-99.5739517
5635847,8121000,"Colorado Rv at Colorado City, TX",3966,32.3926201,-100.8787231
5714835,8123800,"Beals Ck nr Westbrook, TX",9802,32.1992912,-101.0139999
5722265,8124000,"Colorado Rv at Robert Lee, TX",15307,31.8854218,-100.4806519
5721925,8123850,"Colorado Rv abv Silver, TX",14910,32.0537453,-100.7620544
5707852,8128400,"Middle Concho Rv abv Tankersley, TX",2084,31.4273834,-100.7112122
5712411,8134250,"N Concho Rv nr Grape Creek, TX",1400,31.5426579,-100.5550995
5711941,8134000,"N Concho Rv nr Carlsbad, TX",1266,31.5926552,-100.6370468
5711823,8133500,"N Concho Rv at Sterling City, TX",588,31.8301392,-100.993721
5711103,8133250,"N Concho Rv abv Sterling City, TX",201,31.8973579,-101.1051102
5719546,8136000,"Concho Rv at San Angelo, TX",5542,31.4546051,-100.4106445
22459435,8407500,"PECOS RIVER AT RED BLUFF, NM",19540,32.0751915,-104.0394363
22457719,8405150,"DARK CANYON AT CARLSBAD, NM",451,32.4033318,-104.2294464
22458537,8405500,"BLACK RIVER ABOVE MALAGA, NM",343,32.2290878,-104.1518555
22458517,8406000,"BLACK RIVER AT MALAGA, NM",350,32.2408676,-104.0646896
22458801,8405450,"BLUE SPRINGS ABOVE DIVERSIONS NR WHITES CITY, NM",0,32.1845894,-104.2845001
22457637,8405200,"PECOS RIVER BELOW DARK CANYON AT CARLSBAD, NM",18550,32.4092751,-104.2149734
22458621,8406500,"PECOS RIVER NEAR MALAGA, NM",19190,32.2075424,-104.0238724
22460369,8407000,"PECOS RIVER AT PIERCE CANYON CROSSING, NM",19260,32.18853,-103.9793854
3210721,8412500,"Pecos Rv nr Orla, TX",25070,31.8726273,-103.8315811
20758520,8408500,"DELAWARE RIVER NR RED BLUFF, NM",689,32.02314,-104.0544586
22458323,8405105,"DARK CANYON DRAW NEAR WHITES CITY, NM",327,32.290432,-104.3491669
20371805,9537200,"LESLIE CREEK NEAR MCNEAL, AZ.",79.0999985,31.5900955,-109.5089569
15932483,9471400,"BABOCOMARI RIVER NEAR TOMBSTONE, AZ.",306,31.7002773,-110.226387
15934841,9470750,"RAMSEY CANYON NEAR SIERRA VISTA, AZ",4.1100001,31.4466667,-110.3058319
15933593,9471550,"SAN PEDRO RIVER NEAR TOMBSTONE, AZ",1740,31.7509232,-110.2011871
15932661,9471000,"SAN PEDRO RIVER AT CHARLESTON, AZ.",1234,31.625927,-110.1745224
15932947,9470700,"BANNING CREEK NEAR BISBEE, AZ",8.7399998,31.5034714,-110.0052795
945050159,9471380,"UPPER BABOCOMARI RIVER NEAR HUACHUCA CITY, AZ",157.6999969,31.6350002,-110.4247208
15932983,9471310,"HUACHUCA CANYON NEAR FORT HUACHUCA, AZ",4.0700002,31.518055,-110.3872223
15934417,9470800,"GARDEN CANYON NEAR FORT HUACHUCA, AZ.",8.3800001,31.4728756,-110.3478622
15919531,9472050,"SAN PEDRO R AT REDINGTON BRIDGE NR REDINGTON, AZ",3096,32.4461823,-110.4884186
15895582,9484550,"CIENEGA CREEK NEAR SONOITA, AZ.",198,31.8655548,-110.5699997
15895252,9485000,"RINCON CREEK NEAR TUCSON, AZ.",44.7999992,32.1295242,-110.6259155
15903601,9482500,"SANTA CRUZ RIVER AT TUCSON, AZ",2222,32.2211876,-110.9817581
15905931,9482000,"SANTA CRUZ RIVER AT CONTINENTAL, AZ",1682,31.8714733,-110.9800873
15894026,9485700,"RILLITO CREEK AT DODGE BOULEVARD, AT TUCSON, AZ.",871,32.2714653,-110.9145355
15894416,9484600,"PANTANO WASH NEAR VAIL, AZ.",457,32.0359154,-110.6775818
15893872,9484000,"SABINO CREEK NEAR TUCSON, AZ.",35.5,32.3167419,-110.8103638
15895584,9484580,"BARREL CANYON NEAR SONOITA, AZ",14.1000004,31.8617516,-110.6911926
15894062,9484500,"TANQUE VERDE CREEK AT TUCSON, AZ.",219,32.2653542,-110.8412018
15895298,9485450,"PANTANO WASH AT BROADWAY BLVD. AT TUCSON, AZ.",599,32.2206306,-110.8295288
15903137,9486500,"SANTA CRUZ RIVER AT CORTARO, AZ",3503,32.3511848,-111.0945435
945050134,9486350,"CANADA DEL ORO BLW INA ROAD, NEAR TUCSON, AZ.",255,32.3361855,-111.0420456
15905049,9481740,"SANTA CRUZ RIVER AT TUBAC, AZ.",1210,31.6128674,-111.041481
15892894,9486055,"RILLITO CREEK AT LA CHOLLA BLVD NEAR TUCSON, AZ.",922,32.3034096,-111.0120392
15890430,9486520,"SANTA CRUZ RIVER AT TRICO ROAD, NR MARANA, AZ.",3641,32.4714584,-111.3076096
15876941,9487000,"BRAWLEY WASH NEAR THREE POINTS, AZ.",776,32.075634,-111.3387146
15878029,9486800,"ALTAR WASH NEAR THREE POINTS, AZ.",463,31.8389721,-111.4042664
20351631,11046100,LAS FLORES C NR OCEANSIDE CA,26.6000004,33.2922554,-117.4567108
20351605,11046300,SAN MATEO C NR SAN CLEMENTE CA,80.8000031,33.4708595,-117.4730988
20350681,11047300,ARROYO TRABUCO A SAN JUAN CAPISTRANO CA,54.0999985,33.4983597,-117.6658859
20350869,11046360,CRISTIANITOS C AB SAN MATEO C NR SAN CLEMENTE CA,31.6000004,33.4264183,-117.5703278
22548559,11046000,SANTA MARGARITA R A YSIDORA CA,723,33.311142,-117.3472595
22548457,11044300,SANTA MARGARITA R A FPUD SUMP NR FALLBROOK CA,620,33.4136391,-117.2411499
22548441,11044800,DE LUZ C NR DE LUZ CA,33,33.4197502,-117.321701
22548429,11044350,SANDIA C NR FALLBROOK CA,21.1000004,33.4244728,-117.2491989
22549115,11045300,FALLBROOK C NR FALLBROOK CA,6.9699998,33.3469772,-117.3178177
22548547,11045600,ONEILL LAKE OUTLET CH NR FALLBROOK CA,9.7700005,33.3250313,-117.325592
22548545,11045700,ONEILL LK SPILL CH NR FALLBROOK CA,9.7700005,33.3289223,-117.3272629
22548475,11044250,RAINBOW C NR FALLBROOK CA,10.3000002,33.4075317,-117.2008667
20342539,11042000,SAN LUIS REY R A OCEANSIDE CA,557,33.2180901,-117.3603134
22549075,11044000,SANTA MARGARITA R NR TEMECULA CA,588,33.4739189,-117.1422501
20331196,11023340,LOS PENASQUITOS C NR POWAY CA,42.0999985,32.9431,-117.1216965
20330908,11028500,SANTA MARIA C NR RAMONA CA,57.5999985,33.0522652,-116.9455872
20330872,11027000,GUEJITO C NR SAN PASQUAL CA,22.5,33.1158752,-116.9530869
20331516,11023000,SAN DIEGO R A FASHION VALLEY AT SAN DIEGO CA,429,32.765049,-117.1686478
20331402,11022480,SAN DIEGO R A MAST RD NR SANTEE CA,368,32.8403282,-117.0258636
22549471,11042400,TEMECULA C NR AGUANGA CA,131,33.459198,-116.9236374
20333160,11016200,SWEETWATER R A DEHESA CA,131,32.7741661,-116.8502808
20330878,11025500,SANTA YSABEL C NR RAMONA CA,112,33.106987,-116.8661346
20332986,11022200,LOS COCHES C NR LAKESIDE CA,12.1999998,32.8361626,-116.9003067
20334508,11014000,JAMUL C NR JAMUL CA,70.0999985,32.637558,-116.8841858
20334440,11015000,SWEETWATER R NR DESCANSO CA,45.4000015,32.834774,-116.6230774
20326431,11012500,CAMPO C NR CAMPO CA,85,32.5911713,-116.5255737
22599679,10254050,SALT C NR MECCA,269,33.4469757,-115.8433304
22598685,10254730,ALAMO R NR NILAND CA,0,33.1989288,-115.5969315
22603541,10254970,NEW R AT INTERNATIONAL BOUNDARY AT CALEXICO CA,0,32.6658936,-115.5030518
21412615,9524000,"YUMA MAIN CANAL AT SIPHON DROP P.P. NR YUMA, AZ",0,32.7767105,-114.6355057
21412675,9429600,"COLORADO RIVER BELOW LAGUNA DAM, AZ-CA",188600,32.8122673,-114.514946
21411625,9522400,"MITTRY LAKE DIVERSION AT IMPERIAL DAM, AZ",0,32.8794861,-114.4610596
21412135,9530000,"RESERVATION MAIN DRAIN NO. 4 NEAR YUMA, AZ",0,32.7372704,-114.6218948
21412723,9521100,"COLORADO R BLW YUMA MAIN CANAL WW AT YUMA, AZ",246500,32.7317123,-114.6327286
21412731,9526000,DIV. FROM YUMA MAIN CANAL FOR YUMA MUNICIPAL,0,32.726387,-114.6172256
21412775,9525500,"YUMA MAIN CANAL BLW COLORADO R. SIPHON AT YUMA, AZ",0,32.7303238,-114.6199493
20380357,9520500,"GILA RIVER NEAR DOME, AZ",57850,32.7608795,-114.4205017
945070137,9520280,"GILA RIVER NEAR DATELAND, AZ",55000,32.882267,-113.5413055
20427202,9518500,"GILA BEND CANAL AT GILLESPIE DAM, AZ",49650,33.2292099,-112.767395
20405291,9517000,"HASSAYAMPA RIVER NEAR ARLINGTON, AZ",1471,33.3472633,-112.7257233
20396911,9519000,"ENTERPRISE CANAL AT GILLESPIE DAM, AZ",49650,33.2292099,-112.7715607
20395589,9517490,CENTENNIAL WASH AT SOUTHERN PACIFIC RAILROAD BRDG,1817,33.310318,-112.8818436
20377291,9519800,"GILA RIVER BELOW PAINTED ROCK DAM, AZ",50910,33.0750465,-113.0146179
15882758,9489000,"SANTA CRUZ RIVER NEAR LAVEEN, AZ.",8581,33.2322693,-112.1695938
20427008,9514100,"GILA RIVER AT ESTRELLA PARKWAY, NEAR GOODYEAR, AZ.",45585,33.3875427,-112.3923798
21269350,9479350,"GILA RIVER NEAR MARICOPA, AZ.",19915,33.1686592,-112.0073624
20481266,9512162,"INDIAN BEND WASH AT CURRY ROAD, TEMPE, AZ.",82,33.4403229,-111.9151459
21272796,9478500,"QUEEN CREEK BELOW WHITLOW DAM NR SUPERIOR, AZ.",144,33.299221,-111.277626
21274486,9474000,"GILA RIVER AT KELVIN, AZ.",18011,33.1028404,-110.9765015
22443884,9498502,"PINTO CREEK NEAR MIAMI, AZ",102,33.4878311,-110.9953918
22442418,9498501,"PINTO CREEK BLW HAUNTED CANYON NR MIAMI, AZ",37.2999992,33.418663,-111.0095596
22444106,94985005,"PINTO CREEK ABOVE HAUNTED CANYON NR MIAMI, AZ",16.9500008,33.4058342,-110.9986115
15915969,9473000,"ARAVAIPA CREEK NEAR MAMMOTH, AZ.",537,32.8442345,-110.6300964
21294881,9468500,"SAN CARLOS RIVER NEAR PERIDOT, AZ.",1026,33.2964478,-110.4514847
21274156,9469500,"GILA RIVER BELOW COOLIDGE DAM, AZ.",12886,33.1695061,-110.5312119
21320505,9466500,"GILA RIVER AT CALVA, AZ.",11470,33.1856117,-110.2200928
21331123,9460150,"FRYE CREEK NEAR THATCHER, AZ.",4.02,32.7439575,-109.8381348
20498017,9489500,"BLACK RVR BLW PUMPING PLANT, NR POINT OF PINES, AZ",560,33.4767189,-109.7639771
21327929,9447800,"BONITA CREEK NEAR MORENCI, AZ.",302,32.955616,-109.531189
21328283,9448500,"GILA RIVER AT HEAD OF SAFFORD VALLEY, NR SOLOMON,",7896,32.8683968,-109.5111847
21324425,9447000,"EAGLE CREEK ABOVE PUMPING PLANT, NEAR MORENCI, AZ.",622,33.0645065,-109.4422989
3077321,9442000,"GILA RIVER NEAR CLIFTON, AZ.",4010,32.9658966,-109.3103485
21357877,9444500,"SAN FRANCISCO RIVER AT CLIFTON, AZ.",2766,33.0495071,-109.2959061
21355827,9444200,"BLUE RIVER NEAR CLIFTON, AZ.",506,33.2908936,-109.1961823
3078075,9439000,"GILA RIVER AT DUNCAN, AZ",3589,32.7244453,-109.0991669
3082381,9432000,"GILA RIVER BELOW BLUE CREEK, NEAR VIRDEN, NM",3203,32.6481323,-108.8458939
21358611,9444000,"SAN FRANCISCO RIVER NEAR GLENWOOD, NM",1653,33.2471657,-108.8799973
2430698,9430500,"GILA RIVER NEAR GILA, NM",1864,33.0615044,-108.537384
2430436,9430600,"MOGOLLON CREEK NEAR CLIFF, NM",69,33.1666679,-108.6497192
3081637,9431500,"GILA RIVER NEAR REDROCK, NM",2829,32.726944,-108.6755524
17703137,8477110,"MIMBRES RIVER AT MIMBRES, NM",184,32.8546753,-107.9737854
3222059,8361000,"RIO GRANDE BELOW ELEPHANT BUTTE DAM, NM",29450,33.14851,-107.2067871
17727284,8359500,"RIO GRANDE AT NARROWS IN ELEPHANT BUTTE RES., NM",28500,33.3861809,-107.1630859
20850229,8480595,"SALT CREEK NEAR TULAROSA, NM",763,33.2755547,-106.3972244
20851387,8481500,"TULAROSA CREEK NEAR BENT, NM",120,33.1448898,-105.8979034
20773110,8387600,"EAGLE CREEK BELOW SOUTH FORK NEAR ALTO, NM",8.1400003,33.3928528,-105.7233429
20772484,8387000,"RIO RUIDOSO AT HOLLYWOOD, NM",120,33.3266907,-105.6253357
20773118,8387575,"SOUTH FORK EAGLE CREEK NEAR ALTO, NM",2.79,33.3924065,-105.724678
20772466,8386505,"RIO RUIDOSO AT RUIDOSO, NM",18.2999992,33.3365288,-105.7263107
20773124,8390020,"RIO HONDO ABOVE CHAVEZ CANYON NEAR HONDO, NM",587.8759766,33.3712502,-105.2573853
22421466,8397620,"RIO PENASCO NEAR HOPE, NM",675,32.8367729,-105.0694199
22421196,8397600,"RIO PENASCO NEAR DUNKEN, NM",583,32.8815269,-105.1780548
20774512,8390800,"RIO HONDO BLW DIAMOND A DAM NR ROSWELL, NM",963,33.2998695,-104.7216721
20774462,8390500,"RIO HONDO AT DIAMOND A RANCH NR ROSWELL, NM",947,33.3491669,-104.8516693
20784350,8396500,"PECOS RIVER NEAR ARTESIA, NM",15300,32.8408623,-104.3238297
20783756,8395500,"PECOS RIVER NEAR LAKE ARTHUR, NM",14760,32.9893074,-104.3209686
20781952,8394033,"PECOS R S BOUNDARY (BLM WETLANDS) NR DEXTER, NM",14731,33.2683334,-104.3544159
20780960,8394024,"PECOS R N BOUNDARY (BLM WETLANDS) NR DEXTER, NM",14670,33.3172493,-104.3616638
20773700,8393610,"RIO HONDO NEAR ROSWELL, NM",2900,33.4087753,-104.4717178
20766191,8394500,"RIO FELIX AT OLD HWY BRD NR HAGERMAN, NM",932,33.1251068,-104.3449631
22423332,8398500,"RIO PENASCO AT DAYTON, NM",1060,32.7434464,-104.4141312
22455677,8402000,"PECOS R AT DAMSITE 3 NR CARLSBAD, NM",17980,32.5112267,-104.3332901
22455359,8401200,"SOUTH SEVEN RIVERS NR LAKEWOOD, NM",220,32.5886116,-104.4213867
22455729,8401900,"ROCKY ARROYO AT HWY BRD NR CARLSBAD, NM",285,32.5060806,-104.3749924
22455535,8401500,"PECOS RIVER BELOW BRANTLEY DAM NEAR CARLSBAD, NM",17650,32.54319,-104.3711014
22454933,8399500,"PECOS RIVER (KAISER CHANNEL) NEAR LAKEWOOD, NM",19163,32.6893768,-104.2992172
22455973,8400000,"FOURMILE DRAW NR LAKEWOOD, NM",265,32.6726875,-104.3689728
5633401,8117995,"Colorado Rv nr Gail, TX",498,32.6287193,-101.285408
22457393,8404000,"PECOS RIVER BELOW AVALON DAM, NM",18080,32.480854,-104.2629776
13698835,8079600,"DMF Brazos Rv at Justiceburg, TX",1466,33.0384331,-101.1976318
5633615,8120500,"Deep Ck nr Dunn, TX",198,32.5737228,-100.9078903
13700459,8080500,"DMF Brazos Rv nr Aspermont, TX",8796,33.0081558,-100.1806564
14033905,8082000,"Salt Fk Brazos Rv nr Aspermont, TX",5130,33.3339806,-100.2381592
5488375,8083230,"Clear Fk Brazos Rv nr Noodle, TX",1176,32.6745605,-100.0726013
5488917,8083100,"Clear Fk Brazos Rv nr Roby, TX",228,32.7876091,-100.3887177
5542148,8082700,"Millers Ck nr Munday, TX",104,33.3292656,-99.4650803
5489397,8084000,"Clear Fk Brazos Rv at Nugent, TX",2199,32.6901169,-99.6695328
5491439,8083480,"Cedar Ck at IH 20, Abilene, TX",136,32.4995689,-99.7162018
5509690,8084800,"California Ck nr Stamford, TX",478,32.9309425,-99.6425858
5521636,8085500,"Clear Fk Brazos Rv at Ft Griffin, TX",3988,32.9345551,-99.2245178
5525607,8086212,"Hubbard Ck bl Albany, TX",613,32.7328987,-99.1406326
5525639,8086050,"Deep Ck at Moran, TX",235,32.5592918,-99.1700745
5525073,8086290,"Big Sandy Ck abv Breckenridge, TX",280,32.6484566,-99.0045166
5494668,8088000,"Brazos Rv nr South Bend, TX",22673,33.0242844,-98.6439514
24943191,8088610,"Brazos Rv nr Graford, TX",23596,32.8581772,-98.4117203
1304795,8042800,"W Fk Trinity Rv nr Jacksboro, TX",683,33.2917786,-98.0805969
5498058,8090800,"Brazos Rv nr Dennis, TX",25237,32.6156883,-97.9258728
5497132,8089000,"Brazos Rv nr Palo Pinto, TX",23811,32.8626251,-98.3025513
1306815,8044800,"Walnut Ck at Reno, TX",75.5999985,32.9456787,-97.5830765
1305635,8044000,"Big Sandy Ck nr Bridgeport, TX",333,33.231781,-97.6947556
1268504,8045850,"Clear Fk Trinity Rv nr Weatherford, TX",121,32.740406,-97.6519699
1305941,8044500,"W Fk Trinity Rv nr Boyd, TX",1725,33.0853996,-97.5586395
1268884,8048800,"Big Fossil Ck at Haltom City, TX",52.7999992,32.8073502,-97.2486267
1268410,8048000,"W Fk Trinity Rv at Ft Worth, TX",2615,32.7609634,-97.3325195
1268432,8045550,"WFk TrinityRv at White Settlement Rd,Fort Worth,TX",2068,32.7597237,-97.4038925
1268904,8047500,"Clear Fk Trinity Rv at Ft Worth, TX",518,32.7323532,-97.3589096
1268934,8047000,"Clear Fk Trinity Rv nr Benbrook, TX",431,32.6651344,-97.4419632
1268612,8048970,"Village Ck at Everman, TX",84.5,32.6034698,-97.2650146
1268514,8047050,"Marys Ck at Benbrook, TX",54,32.6951332,-97.4472427
1268426,8048543,"W Fk Trinity Rv at Beach St, Ft Worth, TX",2685,32.7517967,-97.2894592
1285627,8053500,"Denton Ck nr Justin, TX",400,33.1190109,-97.2905731
1269868,8049500,"W Fk Trinity Rv at Grand Prairie, TX",3065,32.7625008,-96.9944458
1269870,8050100,"Mountain Ck at Grand Prairie, TX",298,32.7476311,-96.9258347
1268648,8049700,"Walnut Ck nr Mansfield, TX",62.7999992,32.5809708,-97.1019516
1270482,8049580,"Mountain Ck nr Venus, TX",25.5,32.4909706,-97.1230621
1279696,8055560,"Elm Fk Trinity Rv at Spur 348, Irving, TX",2537,32.873333,-96.9305573
1279694,8055500,"Elm Fk Trinity Rv nr Carrollton, TX",2459,32.9659576,-96.9444504
1278624,8053000,"Elm Fk Trinity Rv nr Lewisville, TX",1673,33.0456772,-96.9611206
1278534,8052700,"Little Elm Ck nr Aubrey, TX",75.5,33.2834511,-96.8927841
1276892,8051500,"Clear Ck nr Sanger, TX",295,33.3362274,-97.1794586
1277178,8052780,"Hickory Ck at Denton, TX",129,33.1517868,-97.1419601
1278616,8052745,"Doe Br at US Hwy 380 nr Prosper, TX",38.5,33.2192841,-96.8919449
1278566,8053009,"Indian Ck at FM 2281, Carrollton, TX",13.6999998,33.0269432,-96.9172211
1287145,8055000,"Denton Ck nr Grapevine, TX",705,32.9870682,-97.0127869
1260357,8056500,"Turtle Ck at Dallas, TX",7.98,32.8073502,-96.8024979
1260375,8057410,"Trinity Rv bl Dallas, TX",6278,32.7076302,-96.7358322
1260353,8057200,"White Rk Ck at Greenville Ave, Dallas, TX",66.4000015,32.8892937,-96.7566681
942030011,8057000,"Trinity Rv at Dallas, TX",6106,32.7748528,-96.8219452
1260403,8057300,"White Rk Ck at White Rk Lk, Dallas, TX",100,32.8087387,-96.7258301
1293010,8061540,"Rowlett Ck nr Sachse, TX",120,32.9598427,-96.6144409
4300953,7342480,"Middle Sulphur Rv at Commerce, TX",44.0999985,33.2665024,-95.9155197
5253949,8017200,"Cowleech Fk Sabine Rv at Greenville, TX",81,33.1328926,-96.0769196
5254557,8017300,"S Fk Sabine Rv nr Quinlan, TX",78.6999969,32.8978996,-96.2533112
1293094,8062000,"E Fk Trinity Rv nr Crandall, TX",1256,32.6387444,-96.4852676
1292096,8059350,"Indian Ck at SH 78 nr Farmersville, TX",104,33.2249985,-96.3730545
1292054,8059400,"Sister Grove Ck nr Blue Ridge, TX",83.0999985,33.2945595,-96.4830399
1292124,8059000,"E Fk Trinity Rv nr McKinney, TX",190,33.2037277,-96.5958252
1293162,8061750,"E Fk Trinity Rv nr Forney, TX",1118,32.7742958,-96.5036011
1297176,8062800,"Cedar Ck nr Kemp, TX",189,32.5034714,-96.1127472
1297270,8062895,"Kings Ck at SH 34 nr Kaufman, TX",224,32.5561104,-96.3388901
4300911,7343000,"N Sulphur Rv nr Cooper, TX",276,33.4748306,-95.587738
4300941,7342500,"S Sulphur Rv nr Cooper, TX",527,33.3564987,-95.5949554
4300845,7342465,"S Sulphur Rv at Commerce, TX",150,33.2117805,-95.9141312
5256789,8017410,"Sabine Rv nr Wills Point, TX",756,32.8062363,-95.9194107
5275740,8018500,"Sabine Rv nr Mineola, TX",1357,32.6137466,-95.4857864
5293833,8019000,"Lake Fk Ck nr Quitman, TX",585,32.7631836,-95.4630127
1129533,7343200,"Sulphur Rv nr Talco, TX",1405,33.390667,-95.062439
1122795,7343500,"White Oak Ck nr Talco, TX",494,33.3223343,-95.09272
5275798,8019500,"Big Sandy Ck nr Big Sandy, TX",231,32.6040306,-95.0916061
5275972,8019200,"Sabine Rv nr Hawkins, TX",2259,32.559864,-95.2066116
1128575,7343450,"Sulphur Rv at IH 30 nr Dalby Springs, TX",1976,33.3094444,-94.6980591
1009042,7344500,"Big Cypress Ck nr Pittsburg, TX",370,33.0209579,-94.8821564
1009020,7344493,"Big Cypress Ck at US Hwy 271 nr Pittsburg, TX",278,33.0729294,-94.9652252
1017865,7346045,"Black Cypress Bayou at Jefferson, TX",365,32.777916,-94.3574142
1017893,7346000,"Big Cypress Bayou nr Jefferson, TX",850,32.7495842,-94.4988098
1042491,7346070,"Little Cypress Bayou nr Jefferson, TX",675,32.7129211,-94.3460236
1042497,7346050,"Little Cypress Ck nr Ore City, TX",383,32.6726418,-94.7510452
5278688,8020450,"Sabine Rv abv Longview, TX",2943,32.4798698,-94.8043823
5274290,8020000,"Sabine Rv nr Gladewater, TX",2791,32.5270882,-94.9602203
1128277,7344210,"Sulphur Rv nr Texarkana, TX",3443,33.3041649,-94.1513901
1018031,7346080,"Big Cypress Ck abv SH 43 nr Karnack, TX",2074,32.7386093,-94.2324982
19950146,7344370,"Red River at Spring Bank, AR",0,33.0894432,-93.8594437
19935747,7348700,"Bayou Dorcheat near Springhill, LA",605,32.9945831,-93.3965607
21956120,7362100,"Smackover Creek near Smackover, AR",385,33.3752785,-92.7766647
15221924,7366200,"Little Corney Bayou near Lillie, LA",208,32.929306,-92.6329269
19432886,7367005,"Ouachita River at West Monroe, LA",39621.64063,32.5002785,-92.1197205
19474583,7364300,"Chemin-A-Haut Bayou near Beekman, LA",271,32.9820709,-91.8056793
19350633,7369000,"Bayou Lafourche near Crew Lake, LA",361,32.5,-91.9180527
19350501,7368000,"Boeuf River near Girard, LA",1226,32.4812546,-91.797905
19474395,7364200,"Bayou Bartholomew near Jones, LA",1187,32.990406,-91.6556778
19473063,7364185,"Bayou Bartholomew near Portland, AR",1110,33.2355537,-91.535553
19303413,7369700,"Bayou Macon nr Kilbourne, LA",504,32.9931793,-91.2626114
19302981,7369680,"Bayou Macon at Eudora, AR",500,33.1002769,-91.2544479
17963095,7288650,"BOGUE PHALIA NR LELAND, MS",484,33.3966675,-90.8477783
17997396,3.30304E+14,"BEE LAKE TRIBUTARY NO 1 NR THORNTON, MS",0,33.0511093,-90.3502808
19180610,7289730,"BIG BLACK RIVER NR BENTONIA, MS",2340,32.603054,-90.3638916
17995532,7287160,"ABIACA CREEK AT CRUGER, MS",95.6999969,33.3416672,-90.2372208
17997024,7287404,"HARLAND CREEK NR HOWARD, MS",62.0999985,33.1017952,-90.1734161
15748460,2484760,"FANNEGUSHA CREEK NR SAND HILL, MS",52.2999992,32.5055542,-89.8127747
19222549,7289350,"BIG BLACK RIVER AT WEST, MS",1027,33.1944427,-89.7711105
15788348,2483500,"PEARL RIVER NR LENA, MS",1981,32.6672211,-89.6461105
15786158,2484500,"YOCKANOOKANY RIVER NR OFAHOMA, MS",469,32.7061119,-89.6719437
15788288,2482550,"PEARL RIVER NR CARTHAGE, MS",1346,32.707222,-89.5263901
15780454,2484000,"YOCKANOOKANY RIVER NR KOSCIUSKO, MS",303,33.0322227,-89.577774
15787182,2483000,"TUSCOLAMETA CREEK AT WALNUT GROVE, MS",411,32.5883331,-89.4649963
15785502,2482000,"PEARL RIVER AT EDINBURG, MS",904,32.7988892,-89.3349991
15785080,2481880,"PEARL RIVER AT BURNSIDE, MS",520,32.8413887,-89.0977783
18659916,2441300,"CATALPA CREEK AT MAYHEW, MS",98,33.4813881,-88.6286087
18602182,2448000,"NOXUBEE RIVER AT MACON, MS",768,33.072361,-88.5587769
18604744,2448900,"BODKA CREEK NEAR GEIGER, AL.",158,32.8070755,-88.3119736
18604216,2448500,"NOXUBEE RIVER NR GEIGER, AL",1097,32.9326286,-88.2978134
18634030,2447025,TOMBIGBEE R AT HEFLIN L&D NR GAINESVILLE ALA.,7230,32.8481865,-88.1561356
18631042,2444160,"TOMBIGBEE RIVER AT BEVILL L&D NR PICKENSVILLE, AL",5750,33.2106781,-88.2886429
18531726,2467500,SUCARNOOCHEE RIVER AT LIVINGSTON AL,607,32.5737457,-88.1933594
166759201,2446500,"SIPSEY RIVER NR ELROD, AL",528,33.257061,-87.7764053
18215736,2466030,"BLACK WARRIOR RIVER AT SELDEN L & D NEAR EUTAW, AL",5810,32.7779083,-87.8405685
18540822,2467000,"TOMBIGBEE R AT DEMOPOLIS L&D NEAR COATOPA, AL.",15385,32.5195808,-87.8783493
18227431,2464360,BINION CREEK BELOW GIN CREEK NEAR SAMANTHA AL,57.2000008,33.4248352,-87.6425095
18208346,2465493,ELLIOTTS CREEK AT MOUNDVILLE AL,32.2999992,32.997345,-87.6222305
18229143,2464000,NORTH RIVER NEAR SAMANTHA AL,223,33.4792824,-87.597229
18228341,2464660,CARROLL CREEK AT ST HWY 69 NR NORTHPORT AL,20.8999996,33.294838,-87.5683365
18227533,2464146,TURKEY CREEK NEAR TUSCALOOSA,6.1599998,33.4134483,-87.5105591
18206880,2465292,"CRIBBS MILL CREEK AT WW PLANT AT TUSCALOOSA, AL.",10.6999998,33.1748428,-87.5647278
18229923,2465000,BLACK WARRIOR RIVER AT NORTHPORT AL,4820,33.2092857,-87.590004
21661814,2424000,CAHABA RIVER AT CENTREVILLE AL,1027,32.9451256,-87.1391602
18229157,2462000,VALLEY CREEK NEAR OAK GROVE AL,148,33.4473305,-87.1222153
18225427,2461500,"VALLEY CREEK NEAR BESSEMER, AL",52.5,33.4192772,-86.9827728
21676818,2422500,MULBERRY CREEK AT JONES AL,203,32.5829086,-86.9036026
21655896,2423555,CAHABA RIVER NEAR HELENA AL,335,33.2845573,-86.8824921
21655740,2423630,SHADES CREEK NEAR GREENWOOD AL,72.3000031,33.3262253,-86.9497147
21655846,242354750,"CAHABA VALLEY CREEK AT CROSS CR RD AT PELHAM, AL.",25.6000004,33.313446,-86.8063812
21656498,2423500,CAHABA RIVER NEAR ACTON AL,230,33.3634453,-86.8130417
21655568,2423496,"CAHABA RIVER NEAR HOOVER, AL",226,33.369278,-86.7841568
21655464,2423425,CAHABA RIVER NEAR CAHABA HEIGHTS AL,201,33.4156647,-86.7397079
21655412,2423414,LITTLE CAHABA RIVER AT CAH BEA RD NR CAHABA HTS AL,47,33.4398308,-86.6988754
21655350,2423380,CAHABA RIVER NEAR MOUNTAIN BROOK AL,140,33.4817734,-86.7127686
21655328,2423400,"LITTLE CAHABA RIVER NR JEFFERSON PARK, AL.",24.3999996,33.4998283,-86.614151
22206103,2405500,KELLY CREEK NEAR VINCENT AL,193,33.4476089,-86.3869247
22271288,2407514,"YELLOWLEAF CREEK NEAR WESTOVER, ALA.",142,33.3206673,-86.4952621
22273668,2407000,COOSA RIVER AT CHILDERSBURG AL,8392,33.2917786,-86.3638687
22206629,2406500,TALLADEGA CREEK AT ALPINE AL,150,33.3595543,-86.2341385
22274612,2408540,HATCHET CREEK BELOW ROCKFORD AL,263,32.91679,-86.2702484
22035157,2415000,HILLABEE CREEK NEAR HACKNEYVILLE AL,190,33.0653992,-85.8780212
22038591,2414715,"TALLAPOOSA RIVER NR NEW SITE, AL.(HORSESHOE BEND)",2058,32.9773445,-85.7396774
21717690,2419000,UPHAPEE CREEK NEAR TUSKEGEE AL,333,32.4768028,-85.6949539
22042575,2414500,TALLAPOOSA RIVER AT WADLEY AL,1675,33.116787,-85.560791
21712124,2418230,"SOUGAHATCHEE CREEK AT CO RD 188 NR LOACHAPOKA, AL.",71.3000031,32.6268005,-85.5880051
15811667,2413300,LITTLE TALLAPOOSA RIVER NEAR NEWELL AL,406,33.437336,-85.3991165
21712732,2418760,CHEWACLA CREEK AT CHEWACLA STATE PARK NR AUBURN,45.7999992,32.5481911,-85.4805069
3298592,2339500,"CHATTAHOOCHEE RIVER AT WEST POINT, GA",3550,32.8862381,-85.1821671
3291248,2338523,"HILLABAHATCHEE CREEK AT THAXTON RD, NR FRANKLIN,GA",16.7999992,33.3406715,-85.2268906
3296804,2339495,OSELIGEE CREEK NEAR LANETT AL,86.4000015,32.901516,-85.1963272
15811451,2413210,"LITTLE TALLAPOOSA R AT GA 100, NEAR BOWDON, GA",245,33.4928894,-85.2791138
3291986,2338500,"CHATTAHOOCHEE RIVER AT US 27, AT FRANKLIN, GA",2680,33.2792854,-85.0999451
3289600,2338840,"YELLOWJACKET CREEK-HAMMETT RD, BLW HOGANSVILLE, GA",91,33.1395683,-84.9752121
3289348,2338660,"NEW RIVER AT GA 100, NEAR CORINTH, GA",127,33.2353973,-84.9877167
3290264,2338000,"CHATTAHOOCHEE RIVER NEAR WHITESBURG, GA",2430,33.4770584,-84.9007721
6415508,2344630,"LINE CREEK BLW LAKE MCINTOSH, NR PEACHTREE CITY,GA",69.4000015,33.3576164,-84.582428
6415488,2344605,"LINE CREEK BELOW GA 54, NEAR PEACHTREE CITY, GA",38.0999985,33.3955574,-84.6069412
6413164,2344620,"SHOAL CREEK AT GA54, NEAR SHARPSBURG, GA",24.1000004,33.3891678,-84.6247253
6415592,2344500,"FLINT RIVER NEAR GRIFFIN, GA",272,33.2441673,-84.4291687
6415544,2344700,"LINE CREEK NEAR SENOIA, GA",101,33.3191681,-84.5222244
6415040,2344872,"FLINT RIVER BELOW BIG BRANCH, NEAR MOLENA, GA",794,33.0470695,-84.5268707
6415518,2344396,"FLINT RIVER AT WOOLSEY ROAD, NEAR WOOLSEY, GA",160,33.3597221,-84.3944473
6415468,2344350,"FLINT RIVER NEAR LOVEJOY, GA",127,33.415554,-84.3847198
6413892,2344478,"SHOAL CREEK AT SHOAL CREEK ROAD, NEAR GRIFFIN, GA",12.8999996,33.2569427,-84.3627777
6339430,2204285,"PATES CREEK NEAR FLIPPEN, GA",11.8999996,33.4925003,-84.2450027
6338744,2211375,"CABIN CREEK AT NORTH SECOND STREET, NR GRIFFIN, GA",4.0999999,33.2716675,-84.2363892
6429916,2347500,"FLINT RIVER AT US 19, NEAR CARSONVILLE, GA",1850,32.7213898,-84.2324982
6415628,2346310,"POTATO CREEK AT COUNTY LINE RD, NR ORCHARD HILL,GA",9.5100002,33.1872215,-84.2294464
6334740,2204520,"SOUTH RIVER AT GA 81, AT SNAPPING SHOALS, GA",468,33.4845581,-83.957962
6336816,2212735,"OCMULGEE RIVER AT GA 18, AT DAMES FERRY, GA",2080,33.0167999,-83.7271271
6336552,2210500,"OCMULGEE RIVER NEAR JACKSON, GA",1420,33.3078995,-83.8382339
6331480,2209000,"ALCOVY RIVER BELOW COVINGTON, GA",244,33.5059509,-83.8249054
6335784,2211800,"TOWALIGA RIVER AT GA 83 NEAR JULIETTE, GA",338,33.1148491,-83.8704605
6340800,2213500,"TOBESOFKEE CREEK NEAR MACON, GA",182,32.8088875,-83.7583313
6334744,2208000,"YELLOW RIVER ROCKY PLAINS RD NR ROCKY PLAINS, GA",428,33.4998627,-83.8841629
6335902,2212600,"FALLING CREEK NEAR JULIETTE, GA",72.1999969,33.0998535,-83.7235107
6341180,2214075,"ECHECONNEE CREEK AT HOUSTON RD, NEAR BYRON, GA",228,32.6918793,-83.7009735
6341518,2213000,"OCMULGEE RIVER AT MACON, GA",2240,32.8386116,-83.6205521
1056233,2220900,"LITTLE RIVER NEAR EATONTON, GA",262,33.3140221,-83.4371109
1056599,2221525,"MURDER CREEK BELOW EATONTON, GA",190,33.2523537,-83.4812775
1943829,2223000,"OCONEE RIVER AT MILLEDGEVILLE, GA",2950,33.0895882,-83.2154312
1949057,2223056,"OCONEE RIVER AT AVANT MINE, NEAR OCONEE, GA",3169,32.9398727,-83.0668182
1947891,2223190,"COMMISSIONER CREEK AT US 441, AT MCINTYRE, GA",156,32.8498688,-83.1929321
1948129,2223360,"BIG SANDY CREEK AT US 441, NEAR IRWINTON, GA",184,32.7665367,-83.1679306
1946791,2223500,"OCONEE RIVER AT DUBLIN, GA",4400,32.5446129,-82.8945847
1946659,2223248,"OCONEE RIVER NEAR OCONEE, GA",3770,32.7873802,-82.9570923
1946441,2223110,"BUFFALO CREEK AT GA 272, NEAR OCONEE, GA",291,32.8912659,-82.9609756
9958312,2200120,"OGEECHEE RIVER AT GA 88, NEAR GRANGE, GA",452.9700012,33.0445976,-82.6037445
9961690,2201000,"WILLIAMSON SWAMP CREEK AT DAVISBORO, GA",109,32.975708,-82.6098557
9976933,2197598,"BRUSHY CREEK AT CAMPGROUND ROAD, NEAR WRENS, GA",21.7999992,33.1807022,-82.3342896
9963082,2201230,"OGEECHEE RIVER AT MIDVILLE, GA",1340,32.8146019,-82.2351227
22725225,2196835,"BUTLER CREEK BELOW 7TH AVENUE, AT FT. GORDON, GA",10.5,33.4386101,-82.1161118
22725411,2197020,"SPIRIT CREEK AT US 1, NEAR AUGUSTA, GA",17.6000004,33.3731956,-82.1387329
22724061,2197000,"SAVANNAH RIVER AT AUGUSTA, GA",7510,33.3737526,-81.942894
22721689,2196690,"HORSE CREEK AT CLEARWATER, SC",155,33.4781914,-81.9076157
9975795,2197830,"BRIER CREEK NEAR WAYNESBORO, GA",473,33.118206,-81.9637299
9978327,2198100,"BEAVERDAM CREEK NEAR SARDIS, GA",30.7999992,32.9376564,-81.8153915
9941682,2202040,"OGEECHEE RIVER AT ROCKY FORD RD, NR ROCKY FORD, GA",1950,32.6490555,-81.8406677
22730673,21973269,"SAVANNAH RIVER NEAR WAYNESBORO, GA",8300,33.1498718,-81.754837
9978725,2198000,"BRIER CREEK AT MILLHAVEN, GA",646,32.9334908,-81.6512222
22726581,2197500,"SAVANNAH R AT BURTONS FERRY BR NR MILLHAVEN, GA",8650,32.9390488,-81.5026093
20104065,2198375,"SAVANNAH RIVER NEAR ESTILL, SC",9670,32.7033348,-81.4283371
9945090,2202190,"OGEECHEE RIVER AT GA 24, NEAR OLIVER, GA",2370,32.4946251,-81.5556641
10553860,2173000,"SOUTH FORK EDISTO RIVER NEAR DENMARK, SC",720,33.3932076,-81.1331558
20152151,2176500,"COOSAWHATCHIE RIVER NEAR HAMPTON, SC",203,32.836277,-81.1317749
20104145,2198500,"SAVANNAH RIVER NEAR CLYO, GA",9850,32.5282364,-81.2687149
10553876,2173051,"SOUTH FORK EDISTO RIVER NEAR BAMBERG, SC",807,33.337101,-81.0187073
10553174,2173030,"SOUTH FORK EDISTO RIVER NEAR COPE, SC",757,33.3590431,-81.0595398
20172848,2175500,"SALKEHATCHIE RIVER NEAR MILEY, SC",341,32.989048,-81.0526047
10542322,2173500,"NORTH FORK EDISTO RIVER AT ORANGEBURG, SC",683,33.4834862,-80.8734283
9614545,2175000,"EDISTO RIVER NR GIVHANS, SC",2730,33.0279465,-80.3914871
9661944,2171500,"SANTEE RIVER NEAR PINEVILLE, SC",14700,33.4543304,-80.1414719
9642631,2172040,"BACK RIVER AT DUPONT INTAKE NR KITTREDGE, SC",0,33.0637817,-79.9570236
9643251,2172035,"TURKEY CREEK ABOVE HUGER, SC",22.7000008,33.1315575,-79.7836914
933040044,2136361,"TURKEY CREEK NEAR MARYVILLE, SC",4.25,33.3284988,-79.3381119
8834930,2105769,"CAPE FEAR R AT LOCK #1 NR KELLY, NC",5255,34.4044456,-78.2936096
9064270,2109500,"WACCAMAW RIVER AT FREELAND, NC",680,34.0950012,-78.5483322
9068534,2110500,"WACCAMAW RIVER NEAR LONGS, SC",1110,33.9126701,-78.7150192
9131716,2134500,"LUMBER RIVER AT BOARDMAN, NC",1228,34.4425011,-78.9602814
9114416,2135000,"LITTLE PEE DEE R. AT GALIVANTS FERRY, SC",2790,34.0571098,-79.2469864
9175266,2131010,"PEE DEE RIVER BELOW PEE DEE, SC",8850,34.157383,-79.5533905
9175254,2131000,"PEE DEE RIVER AT PEEDEE, SC",8830,34.2043266,-79.5483932
9174850,2130980,"BLACK CREEK NEAR QUINBY, SC",438,34.2437668,-79.7447815
9150508,2132000,"LYNCHES RIVER AT EFFINGHAM, SC",1030,34.051548,-79.753952
9090136,2136000,"BLACK RIVER AT KINGSTREE, SC",1252,33.661274,-79.835907
9176602,2130910,"BLACK CREEK NEAR HARTSVILLE, SC",173,34.397377,-80.1497879
9171250,2130900,"BLACK CREEK NEAR MCBEE, SC",108,34.5140419,-80.1831207
9153118,2131500,"LYNCHES RIVER NEAR BISHOPVILLE, SC",675,34.2501564,-80.2136841
9718581,2148000,"WATEREE RIVER NR. CAMDEN, SC",5070,34.2445946,-80.6539688
9707670,2162093,"SMITH BRANCH AT NORTH MAIN ST AT COLUMBIA, SC",5.6700001,34.0273743,-81.0417557
9869898,2169000,"SALUDA RIVER NEAR COLUMBIA, SC",2520,34.0140419,-81.0878754
9680968,2169570,"GILLS CREEK AT COLUMBIA, SC",59.5999985,33.9896011,-80.9742584
9684210,2169500,"CONGAREE RIVER AT COLUMBIA, SC",7850,33.9932098,-81.0498123
9707930,2161000,"BROAD RIVER AT ALSTON, SC",4790,34.2432022,-81.3195419
9869858,2168504,"SALUDA RIVER BELOW LK MURRAY DAM NR COLUMBIA, SC",2420,34.0509834,-81.2095413
10540922,2173212,"CEDAR CREEK NEAR THOR, SC",44.0999985,33.6899986,-81.2541656
9698941,2160105,"TYGER RIVER NEAR DELTA, SC",759,34.5354156,-81.5481567
10549446,2172300,"MCTIER CREEK (RD 209) NEAR MONETTA, SC",15.6000004,33.753479,-81.6017685
9691190,2160700,"ENOREE RIVER AT WHITMIRE, SC",444,34.509304,-81.5981598
9869450,2167582,"BUSH RIVER NR PROSPERITY, SC",115,34.1687508,-81.6103821
9869384,2167450,"LITTLE RIVER NR SILVERSTREET, SC",230,34.2095795,-81.7631683
9869618,2167705,"LITTLE SALUDA RIVER NEAR SALUDA, SC",110,34.0445824,-81.697052
9869744,2167000,"SALUDA RIVER AT CHAPPELLS, SC",1360,34.1745758,-81.8639984
9869434,2166501,"LAKE GREENWOOD TAILRACE NR CHAPPELLS, SC",1170,34.1676292,-81.9078903
9870686,21650905,"REEDY RIVER NEAR WATERLOO, SC",251,34.3913879,-82.1394424
9868430,2165200,"SOUTH RABON CREEK NEAR GRAY COURT, SC",29.5,34.5201187,-82.1570511
9868108,21652801,"NORTH RABON CREEK NEAR HICKORY TAVERN, SC",36.9000015,34.5250015,-82.1383362
22720801,2196485,"AUGUSTA CANAL NR AUGUSTA, GA (UPPER)",0,33.5493011,-82.0367813
22720787,21964832,"SAVANNAH RIVER ABOVE AUGUSTA CANAL NEAR BONAIR,GA",0,33.5613899,-82.0511093
9871292,2163500,"SALUDA RIVER NEAR WARE SHOALS, SC",580,34.3917847,-82.2234497
22720339,2195320,"KIOKEE CREEK AT GA 104, NEAR EVANS, GA",106,33.6009674,-82.2326202
11730030,2196000,"STEVENS CREEK NEAR MODOC, SC",545,33.7292976,-82.1817856
11737579,2192500,"LITTLE RIVER NEAR MT. CARMEL, SC",217,34.0715065,-82.5006866
11735427,2187910,"ROCKY RIVER NR STARR, SC",111,34.3831635,-82.5773544
6280111,2192000,"BROAD RIVER NEAR BELL, GA",1420,33.9741669,-82.7699966
6289757,2193500,"LITTLE RIVER NEAR WASHINGTON, GA",292,33.6127777,-82.7425003
11736643,2188600,"BEAVERDAM CREEK ABOVE ELBERTON, GA",72,34.1687202,-82.8965302
6289497,2193340,"KETTLE CREEK NEAR WASHINGTON, GA",33.9000015,33.6826286,-82.8579254
6279431,2191300,"BROAD RIVER ABOVE CARLTON, GA",760,34.0733337,-83.003334
6279327,2191743,"SOUTH FORK BROAD RIVER AT CARLTON, GA",224,34.0315018,-83.0090332
1050623,2218300,"OCONEE RIVER NEAR PENFIELD, GA",940,33.7212334,-83.295433
1049653,2217770,"NORTH OCONEE RIVER AT COLLEGE ST, AT ATHENS, GA",275,33.9698372,-83.3773804
1047261,2217615,"NORTH OCONEE R AT WOODBRIDGE RD, NEAR COMMERCE, GA",99.3000031,34.2002792,-83.515831
1050457,2219000,"APALACHEE RIVER NEAR BOSTWICK, GA",176,33.7881775,-83.4740524
1049699,2217500,"MIDDLE OCONEE RIVER NEAR ATHENS, GA",398,33.9466667,-83.4227753
1048487,2217475,"MIDDLE OCONEE RIVER NEAR ARCADE, GA",332,34.0316658,-83.5633316
2042071,2331600,"CHATTAHOOCHEE RIVER NEAR CORNELIA, GA",315,34.5407219,-83.6227722
1048063,2217297,"MULBERRY CREEK NEAR WINDER, GA",109,34.0459404,-83.7115631
1047837,2217274,"WHEELER CREEK AT BILL CHEEK ROAD, NEAR AUBURN, GA",1.3099999,34.0823288,-83.8546219
6331178,2208450,"ALCOVY RIVER ABOVE COVINGTON, GA",181,33.6401138,-83.779068
1048273,2218565,"APALACHEE RIVER AT FENCE ROAD, NEAR DACULA, GA",5.6799998,34.0103836,-83.8940659
6330580,2208150,"ALCOVY RIVER AT NEW HOPE ROAD, NEAR GRAYSON, GA",30.7999992,33.9176064,-83.8879547
6331746,2207448,"BIG HAYNES CREEK AT BALD ROCK ROAD, NR MILSTEAD GA",82,33.6613884,-83.9277802
6331014,2207435,LITTLE HAYNES CREEK AT DIAL MILL RD NR MILSTEAD GA,25.7999992,33.711113,-83.914444
6330996,2207418,"BIG HAYNES CREEK AT JACK TURNER DAM,NR MILSTEAD GA",46.2999992,33.7291679,-83.9372253
6330794,2207400,"BRUSHY FORK CREEK AT BEAVER ROAD, NR LOGANVILLE,GA",8.1499996,33.8214989,-83.9424057
6330798,2207385,"BIG HAYNES CREEK AT LENORA ROAD, NR SNELLVILLE, GA",17.2999992,33.8151054,-83.9901886
6331142,2207335,"YELLOW RIVER AT GEES MILL ROAD, NEAR MILSTEAD, GA",260,33.6669426,-83.9380569
2041805,2333500,"CHESTATEE RIVER NEAR DAHLONEGA, GA",153,34.5280571,-83.9397202
6495832,2388975,"ETOWAH RIVER AT GA 136, NEAR LANDDRUM, GA",97.3000031,34.4089851,-84.0196304
6333628,2207220,"YELLOW RIVER AT PLEASANT HILL ROAD, NR LITHONIA,GA",213,33.7337189,-84.0618591
6333538,2207120,"YELLOW RIVER AT GA 124, NEAR LITHONIA, GA",162,33.7728844,-84.0582504
6333380,2205865,"SWEETWATER CREEK AT CLUB DRIVE NEAR LILBURN, GA",21,33.9411125,-84.1077805
6333958,2204130,"HONEY CREEK AT GA 212, NEAR CONYERS, GA",26,33.579834,-84.0640793
6333824,2204070,"SOUTH RIVER AT KLONDIKE ROAD, NEAR LITHONIA, GA",182,33.6298332,-84.1285248
6333534,2207185,"NO BUSINESS CREEK AT LEE ROAD, BELOW SNELLVILLE,GA",10.1000004,33.7781639,-84.0379715
2045337,2334430,"CHATTAHOOCHEE RIVER AT BUFORD DAM, NEAR BUFORD, GA",1040,34.1569443,-84.0788879
2044851,2334620,"DICK CREEK AT OLD ATLANTA RD, NEAR SUWANEE, GA",6.9000001,34.0714874,-84.1301956
2044673,2334480,"RICHLAND CREEK AT SUWANEE DAM ROAD, NEAR BUFORD,GA",9.3400002,34.1325989,-84.0699081
2044799,2334578,"LEVEL CREEK AT SUWANEE DAM ROAD, NEAR SUWANEE, GA",5.04,34.096489,-84.0796356
2044955,2334885,"SUWANEE CREEK AT SUWANEE, GA",47,34.0323219,-84.0893555
2048087,2335000,"CHATTAHOOCHEE RIVER NEAR NORCROSS, GA",1170,33.9972229,-84.2019424
6496178,2389150,"ETOWAH RIVER AT GA 9, NEAR DAWSONVILLE, GA",131,34.3580551,-84.1133347
6333752,2203900,"SOUTH RIVER AT FLAKES MILL ROAD NR ATLANTA, GA",99,33.6662178,-84.2246399
6333720,2203655,"SOUTH RIVER AT FORREST PARK ROAD, AT ATLANTA, GA",22.5,33.678997,-84.3579788
6334126,2203700,"INTRENCHMENT CR AT CONSTITUTION RD, NR ATLANTA, GA",10.6000004,33.6889954,-84.3304825
6334110,2203950,"SNAPFINGER CREEK NEAR DECATUR, GA",13.1999998,33.7634392,-84.2201996
6334112,2203863,"SHOAL CREEK AT COLUMBIA DRIVE NEAR ATLANTA, GA",8.6300001,33.6931953,-84.253891
2048135,2335450,"CHATTAHOOCHEE RIVER ABOVE ROSWELL, GA",1220,33.9859352,-84.3160324
2045061,2335757,"BIG CREEK BELOW HOG WALLOW CREEK AT ROSWELL, GA",103.1600037,34.0175018,-84.3533325
2044921,2335700,"BIG CREEK NEAR ALPHARETTA, GA",72,34.0505562,-84.2694473
2044625,2335580,"BIG CREEK AT GA 9, NEAR CUMMING, GA",37.4000015,34.1559296,-84.2185287
2048057,2335350,"CROOKED CREEK NEAR NORCROSS, GA",8.8900003,33.9650993,-84.2649231
2048013,2336240,"S.F. PEACHTREE CREEK JOHNSON RD, NEAR ATLANTA, GA",27.6000004,33.8028831,-84.3407593
2048083,2336152,"SOUTH FORK PEACHTREE AT CASA RD NEAR CLARKSTON, GA",5.6700001,33.8083344,-84.2479477
2047971,2336120,"N.F. PEACHTREE CREEK, BUFORD HWY, NEAR ATLANTA, GA",34.7999992,33.8314934,-84.3427048
2047869,2336030,"N.F. PEACHTREE CREEK AT GRAVES RD, NR DORAVILLE,GA",1.53,33.9056587,-84.2249222
2047911,2336360,"NANCY CREEK AT RICKENBACKER DRIVE, AT ATLANTA, GA",26.6000004,33.8691673,-84.378891
2048157,2335815,"CHATTAHOOCHEE RIVER BELOW MORGAN FALLS DAM, GA",1370,33.9680557,-84.3827744
6496726,2390140,"SETTINGDOWN CREEK NEAR BALL GROUND, GA",50.5999985,34.293148,-84.2635345
6495864,2390000,"AMICALOLA CREEK NEAR DAWSONVILLE, GA.",89,34.4256477,-84.2118607
6496136,2390475,"LONG SWAMP CREEK AT REAVIS MTN RD, NR NELSON, GA",68.1999969,34.3748169,-84.3474197
2048241,2336000,"CHATTAHOOCHEE RIVER AT ATLANTA, GA",1450,33.8591652,-84.4544449
2048069,2335910,"ROTTENWOOD CR AT INTERSTATE N PKWY, NR SMYRNA, GA",18.6000004,33.8937149,-84.4577103
2047815,2335870,"SOPE CREEK NEAR MARIETTA, GA",30.7000008,33.9538879,-84.4433365
2047771,23358685,"SEWELL MILL CREEK AT GA 120, NEAR MARIETTA, GA",12.5699997,33.9792671,-84.4521484
2047989,2336300,"PEACHTREE CREEK AT ATLANTA, GA",86.8000031,33.8194427,-84.4077759
2048017,2336313,"WOODALL CREEK AT DEFOORS FERRY RD, AT ATLANTA, GA",2.71,33.8217697,-84.4388199
2047963,2336410,"NANCY CREEK AT WEST WESLEY ROAD, AT ATLANTA, GA",37.7000008,33.8384361,-84.4393768
2045079,2335790,"WILLEO CREEK AT GA 120, NEAR ROSWELL, GA",16.1000004,34.0028763,-84.394371
3285770,2336728,"UTOY CREEK AT GREAT SOUTHWEST PKWY NR ATLANTA, GA",33.9000015,33.7434425,-84.5682678
3286344,2336490,"CHATTAHOOCHEE RIVER AT GA 280, NEAR ATLANTA, GA",1590,33.8169441,-84.4800034
3285604,2336635,"NICKAJACK CREEK AT US 78/278, NEAR MABLETON, GA",31.5,33.8033333,-84.5213852
3285608,2336526,"PROCTOR CREEK AT JACKSON PARKWAY, AT ATLANTA, GA",13.3999996,33.7942734,-84.4743729
3285704,2336517,"PROCTOR CREEK AT HORTENSE WAY, AT ATLANTA, GA",7.6399999,33.7756615,-84.4407654
6498060,2392975,"NOONDAY CREEK AT SHALLOWFORD ROAD, NR WOODSTOCK,GA",34.5999985,34.0683327,-84.535553
6498178,2392950,"NOONDAY CREEK AT HAWKINS STORE RD, NR WOODSTOCK,GA",25.5,34.0563889,-84.535553
6498632,2392000,"ETOWAH RIVER AT CANTON, GA",613,34.2399292,-84.4946747
6498588,2391860,"ETOWAH RIVER DOWNSTREAM OF I-575, AT CANTON, GA",600,34.25,-84.4666672
6496580,2391540,"SHARP MTN CREEK AT OLD GA 5, BELOW BALL GROUND, GA",73.1999969,34.3106499,-84.4032593
6497138,2391840,"HICKORY LOG CREEK NEAR CANTON, GA",8.3299999,34.2649994,-84.4738922
6497814,2392780,"LITTLE RIVER AT GA 5, NEAR WOODSTOCK, GA",139,34.1223183,-84.5043716
3285802,2337040,"SWEETWATER CREEK BELOW AUSTELL, GA",262,33.7209396,-84.6149292
3286256,2337000,"SWEETWATER CREEK NEAR AUSTELL, GA",238,33.7766075,-84.6155472
